{
  "type": "FeatureCollection",
  "features": [
    {
      "type": "Feature",
      "geometry": {
        "type": "Point",
        "coordinates": [
          10.0598,
          48.8361
        ]
      },
      "properties": {
        "station_id": "00006",
        "station_name": "Aalen-Unterrombach",
        "elevation": 455.0,
        "start_date": "19821101",
        "end_date": "20250905",
        "federal_state": "Baden-Württemberg"
      }
    },
    {
      "type": "Feature",
      "geometry": {
        "type": "Point",
        "coordinates": [
          9.971,
          48.8795
        ]
      },
      "properties": {
        "station_id": "00019",
        "station_name": "Abtsgmünd-Neubronn",
        "elevation": 471.0,
        "start_date": "19510101",
        "end_date": "20250905",
        "federal_state": "Baden-Württemberg"
      }
    },
    {
      "type": "Feature",
      "geometry": {
        "type": "Point",
        "coordinates": [
          9.9129,
          48.9219
        ]
      },
      "properties": {
        "station_id": "00020",
        "station_name": "Abtsgmünd-Untergröningen",
        "elevation": 432.0,
        "start_date": "19410101",
        "end_date": "20250905",
        "federal_state": "Baden-Württemberg"
      }
    },
    {
      "type": "Feature",
      "geometry": {
        "type": "Point",
        "coordinates": [
          9.6981,
          47.6104
        ]
      },
      "properties": {
        "station_id": "00021",
        "station_name": "Achberg-Doberatsweiler",
        "elevation": 498.0,
        "start_date": "18921101",
        "end_date": "20250905",
        "federal_state": "Baden-Württemberg"
      }
    },
    {
      "type": "Feature",
      "geometry": {
        "type": "Point",
        "coordinates": [
          8.0466,
          48.6318
        ]
      },
      "properties": {
        "station_id": "00022",
        "station_name": "Achern-Fautenbach",
        "elevation": 138.0,
        "start_date": "19510101",
        "end_date": "20250905",
        "federal_state": "Baden-Württemberg"
      }
    },
    {
      "type": "Feature",
      "geometry": {
        "type": "Point",
        "coordinates": [
          9.0232,
          53.0311
        ]
      },
      "properties": {
        "station_id": "00023",
        "station_name": "Achim-Embsen",
        "elevation": 8.0,
        "start_date": "18910501",
        "end_date": "20250905",
        "federal_state": "Niedersachsen"
      }
    },
    {
      "type": "Feature",
      "geometry": {
        "type": "Point",
        "coordinates": [
          10.9101,
          49.7175
        ]
      },
      "properties": {
        "station_id": "00029",
        "station_name": "Adelsdorf (Kläranlage)",
        "elevation": 260.0,
        "start_date": "20060101",
        "end_date": "20250905",
        "federal_state": "Bayern"
      }
    },
    {
      "type": "Feature",
      "geometry": {
        "type": "Point",
        "coordinates": [
          9.5665,
          52.7356
        ]
      },
      "properties": {
        "station_id": "00041",
        "station_name": "Ahlden-Grethem",
        "elevation": 26.0,
        "start_date": "19410101",
        "end_date": "20250905",
        "federal_state": "Niedersachsen"
      }
    },
    {
      "type": "Feature",
      "geometry": {
        "type": "Point",
        "coordinates": [
          8.237,
          52.9336
        ]
      },
      "properties": {
        "station_id": "00044",
        "station_name": "Großenkneten",
        "elevation": 44.0,
        "start_date": "19710301",
        "end_date": "20250905",
        "federal_state": "Niedersachsen"
      }
    },
    {
      "type": "Feature",
      "geometry": {
        "type": "Point",
        "coordinates": [
          12.4639,
          48.945
        ]
      },
      "properties": {
        "station_id": "00046",
        "station_name": "Aholfing",
        "elevation": 325.0,
        "start_date": "20060101",
        "end_date": "20250905",
        "federal_state": "Bayern"
      }
    },
    {
      "type": "Feature",
      "geometry": {
        "type": "Point",
        "coordinates": [
          13.5634,
          52.585
        ]
      },
      "properties": {
        "station_id": "00053",
        "station_name": "Ahrensfelde",
        "elevation": 60.0,
        "start_date": "19690101",
        "end_date": "20250905",
        "federal_state": "Brandenburg"
      }
    },
    {
      "type": "Feature",
      "geometry": {
        "type": "Point",
        "coordinates": [
          12.024,
          47.8778
        ]
      },
      "properties": {
        "station_id": "00055",
        "station_name": "Aibling, Bad-Ellmosen",
        "elevation": 508.0,
        "start_date": "19510101",
        "end_date": "20250905",
        "federal_state": "Bayern"
      }
    },
    {
      "type": "Feature",
      "geometry": {
        "type": "Point",
        "coordinates": [
          11.0521,
          48.4799
        ]
      },
      "properties": {
        "station_id": "00057",
        "station_name": "Hollenbach/Bayern-Schönbach",
        "elevation": 461.0,
        "start_date": "19780101",
        "end_date": "20250905",
        "federal_state": "Bayern"
      }
    },
    {
      "type": "Feature",
      "geometry": {
        "type": "Point",
        "coordinates": [
          10.5376,
          47.8173
        ]
      },
      "properties": {
        "station_id": "00063",
        "station_name": "Aitrang",
        "elevation": 744.0,
        "start_date": "19510101",
        "end_date": "20250905",
        "federal_state": "Bayern"
      }
    },
    {
      "type": "Feature",
      "geometry": {
        "type": "Point",
        "coordinates": [
          13.062,
          48.6183
        ]
      },
      "properties": {
        "station_id": "00073",
        "station_name": "Aldersbach-Kramersepp",
        "elevation": 374.0,
        "start_date": "19310101",
        "end_date": "20250905",
        "federal_state": "Bayern"
      }
    },
    {
      "type": "Feature",
      "geometry": {
        "type": "Point",
        "coordinates": [
          7.9125,
          52.4853
        ]
      },
      "properties": {
        "station_id": "00078",
        "station_name": "Alfhausen",
        "elevation": 64.0,
        "start_date": "19610101",
        "end_date": "20250905",
        "federal_state": "Niedersachsen"
      }
    },
    {
      "type": "Feature",
      "geometry": {
        "type": "Point",
        "coordinates": [
          11.0479,
          51.095
        ]
      },
      "properties": {
        "station_id": "00087",
        "station_name": "Alperstedt",
        "elevation": 158.0,
        "start_date": "19470101",
        "end_date": "20250905",
        "federal_state": "Thüringen"
      }
    },
    {
      "type": "Feature",
      "geometry": {
        "type": "Point",
        "coordinates": [
          9.345,
          50.7446
        ]
      },
      "properties": {
        "station_id": "00091",
        "station_name": "Alsfeld-Eifa",
        "elevation": 304.0,
        "start_date": "19781101",
        "end_date": "20250905",
        "federal_state": "Hessen"
      }
    },
    {
      "type": "Feature",
      "geometry": {
        "type": "Point",
        "coordinates": [
          12.8518,
          52.9437
        ]
      },
      "properties": {
        "station_id": "00096",
        "station_name": "Neuruppin-Alt Ruppin",
        "elevation": 50.0,
        "start_date": "19690101",
        "end_date": "20250905",
        "federal_state": "Brandenburg"
      }
    },
    {
      "type": "Feature",
      "geometry": {
        "type": "Point",
        "coordinates": [
          12.217,
          48.896
        ]
      },
      "properties": {
        "station_id": "00103",
        "station_name": "Hagelstadt",
        "elevation": 364.0,
        "start_date": "19780101",
        "end_date": "20250905",
        "federal_state": "Bayern"
      }
    },
    {
      "type": "Feature",
      "geometry": {
        "type": "Point",
        "coordinates": [
          6.9711,
          50.4844
        ]
      },
      "properties": {
        "station_id": "00105",
        "station_name": "Ahrbrück",
        "elevation": 195.0,
        "start_date": "19410101",
        "end_date": "20250905",
        "federal_state": "Rheinland-Pfalz"
      }
    },
    {
      "type": "Feature",
      "geometry": {
        "type": "Point",
        "coordinates": [
          7.4877,
          52.0487
        ]
      },
      "properties": {
        "station_id": "00110",
        "station_name": "Altenberge",
        "elevation": 65.0,
        "start_date": "19310101",
        "end_date": "20250905",
        "federal_state": "Nordrhein-Westfalen"
      }
    },
    {
      "type": "Feature",
      "geometry": {
        "type": "Point",
        "coordinates": [
          12.2852,
          49.4053
        ]
      },
      "properties": {
        "station_id": "00118",
        "station_name": "Altendorf",
        "elevation": 388.0,
        "start_date": "19510101",
        "end_date": "20250905",
        "federal_state": "Bayern"
      }
    },
    {
      "type": "Feature",
      "geometry": {
        "type": "Point",
        "coordinates": [
          7.5765,
          50.6654
        ]
      },
      "properties": {
        "station_id": "00121",
        "station_name": "Neitersen",
        "elevation": 218.0,
        "start_date": "19310101",
        "end_date": "20250905",
        "federal_state": "Rheinland-Pfalz"
      }
    },
    {
      "type": "Feature",
      "geometry": {
        "type": "Point",
        "coordinates": [
          11.577,
          51.2388
        ]
      },
      "properties": {
        "station_id": "00124",
        "station_name": "Bibra, Bad-Altenroda",
        "elevation": 265.0,
        "start_date": "19470101",
        "end_date": "20250905",
        "federal_state": "Sachsen-Anhalt"
      }
    },
    {
      "type": "Feature",
      "geometry": {
        "type": "Point",
        "coordinates": [
          12.3232,
          49.0844
        ]
      },
      "properties": {
        "station_id": "00128",
        "station_name": "Altenthann-Forstmühle",
        "elevation": 446.0,
        "start_date": "19510101",
        "end_date": "20250905",
        "federal_state": "Bayern"
      }
    },
    {
      "type": "Feature",
      "geometry": {
        "type": "Point",
        "coordinates": [
          13.242,
          53.6893
        ]
      },
      "properties": {
        "station_id": "00129",
        "station_name": "Altentreptow",
        "elevation": 30.0,
        "start_date": "18900501",
        "end_date": "20250905",
        "federal_state": "Mecklenburg-Vorpommern"
      }
    },
    {
      "type": "Feature",
      "geometry": {
        "type": "Point",
        "coordinates": [
          9.7692,
          49.7284
        ]
      },
      "properties": {
        "station_id": "00130",
        "station_name": "Altertheim-Oberaltertheim",
        "elevation": 301.0,
        "start_date": "19410101",
        "end_date": "20250905",
        "federal_state": "Bayern"
      }
    },
    {
      "type": "Feature",
      "geometry": {
        "type": "Point",
        "coordinates": [
          12.9326,
          51.0881
        ]
      },
      "properties": {
        "station_id": "00131",
        "station_name": "Geringswalde-Altgeringswalde",
        "elevation": 296.0,
        "start_date": "19521101",
        "end_date": "20250905",
        "federal_state": "Sachsen"
      }
    },
    {
      "type": "Feature",
      "geometry": {
        "type": "Point",
        "coordinates": [
          12.5731,
          50.9932
        ]
      },
      "properties": {
        "station_id": "00141",
        "station_name": "Altmörbitz/Wyhra",
        "elevation": 207.0,
        "start_date": "20230114",
        "end_date": "20250905",
        "federal_state": "Sachsen"
      }
    },
    {
      "type": "Feature",
      "geometry": {
        "type": "Point",
        "coordinates": [
          11.3117,
          48.406
        ]
      },
      "properties": {
        "station_id": "00142",
        "station_name": "Altomünster-Maisbrunn",
        "elevation": 511.0,
        "start_date": "19550101",
        "end_date": "20250905",
        "federal_state": "Bayern"
      }
    },
    {
      "type": "Feature",
      "geometry": {
        "type": "Point",
        "coordinates": [
          10.2779,
          47.7965
        ]
      },
      "properties": {
        "station_id": "00145",
        "station_name": "Altusried-Krugzell",
        "elevation": 648.0,
        "start_date": "19410101",
        "end_date": "20250905",
        "federal_state": "Bayern"
      }
    },
    {
      "type": "Feature",
      "geometry": {
        "type": "Point",
        "coordinates": [
          10.0988,
          47.7922
        ]
      },
      "properties": {
        "station_id": "00146",
        "station_name": "Altusried-Muthmannshofen",
        "elevation": 730.0,
        "start_date": "20060107",
        "end_date": "20250905",
        "federal_state": "Bayern"
      }
    },
    {
      "type": "Feature",
      "geometry": {
        "type": "Point",
        "coordinates": [
          8.1164,
          49.7273
        ]
      },
      "properties": {
        "station_id": "00150",
        "station_name": "Alzey",
        "elevation": 215.0,
        "start_date": "19510101",
        "end_date": "20250905",
        "federal_state": "Rheinland-Pfalz"
      }
    },
    {
      "type": "Feature",
      "geometry": {
        "type": "Point",
        "coordinates": [
          11.8546,
          49.4691
        ]
      },
      "properties": {
        "station_id": "00151",
        "station_name": "Amberg-Unterammersricht",
        "elevation": 382.0,
        "start_date": "19550301",
        "end_date": "20250905",
        "federal_state": "Bayern"
      }
    },
    {
      "type": "Feature",
      "geometry": {
        "type": "Point",
        "coordinates": [
          12.2925,
          48.0197
        ]
      },
      "properties": {
        "station_id": "00154",
        "station_name": "Amerang-Pfaffing",
        "elevation": 516.0,
        "start_date": "19940101",
        "end_date": "20250905",
        "federal_state": "Bayern"
      }
    },
    {
      "type": "Feature",
      "geometry": {
        "type": "Point",
        "coordinates": [
          8.9545,
          50.784
        ]
      },
      "properties": {
        "station_id": "00158",
        "station_name": "Amöneburg-Rüdigheim",
        "elevation": 210.0,
        "start_date": "19410101",
        "end_date": "20250905",
        "federal_state": "Hessen"
      }
    },
    {
      "type": "Feature",
      "geometry": {
        "type": "Point",
        "coordinates": [
          11.1778,
          47.9636
        ]
      },
      "properties": {
        "station_id": "00160",
        "station_name": "Andechs-Erling",
        "elevation": 682.0,
        "start_date": "19710101",
        "end_date": "20250905",
        "federal_state": "Bayern"
      }
    },
    {
      "type": "Feature",
      "geometry": {
        "type": "Point",
        "coordinates": [
          7.4202,
          50.4237
        ]
      },
      "properties": {
        "station_id": "00161",
        "station_name": "Andernach",
        "elevation": 75.0,
        "start_date": "18970508",
        "end_date": "20250905",
        "federal_state": "Rheinland-Pfalz"
      }
    },
    {
      "type": "Feature",
      "geometry": {
        "type": "Point",
        "coordinates": [
          12.8193,
          47.803
        ]
      },
      "properties": {
        "station_id": "00163",
        "station_name": "Anger-Stoißberg",
        "elevation": 828.0,
        "start_date": "19510101",
        "end_date": "20250905",
        "federal_state": "Bayern"
      }
    },
    {
      "type": "Feature",
      "geometry": {
        "type": "Point",
        "coordinates": [
          13.9908,
          53.0316
        ]
      },
      "properties": {
        "station_id": "00164",
        "station_name": "Angermünde",
        "elevation": 54.0,
        "start_date": "18990417",
        "end_date": "20250905",
        "federal_state": "Brandenburg"
      }
    },
    {
      "type": "Feature",
      "geometry": {
        "type": "Point",
        "coordinates": [
          13.6854,
          53.8409
        ]
      },
      "properties": {
        "station_id": "00167",
        "station_name": "Anklam",
        "elevation": 11.0,
        "start_date": "18900501",
        "end_date": "20250905",
        "federal_state": "Mecklenburg-Vorpommern"
      }
    },
    {
      "type": "Feature",
      "geometry": {
        "type": "Point",
        "coordinates": [
          13.0546,
          51.7309
        ]
      },
      "properties": {
        "station_id": "00170",
        "station_name": "Annaburg",
        "elevation": 76.0,
        "start_date": "19010601",
        "end_date": "20250905",
        "federal_state": "Sachsen-Anhalt"
      }
    },
    {
      "type": "Feature",
      "geometry": {
        "type": "Point",
        "coordinates": [
          7.9799,
          49.2133
        ]
      },
      "properties": {
        "station_id": "00173",
        "station_name": "Annweiler",
        "elevation": 174.0,
        "start_date": "19510101",
        "end_date": "20250905",
        "federal_state": "Rheinland-Pfalz"
      }
    },
    {
      "type": "Feature",
      "geometry": {
        "type": "Point",
        "coordinates": [
          10.5354,
          49.2993
        ]
      },
      "properties": {
        "station_id": "00178",
        "station_name": "Ansbach-Schalkhausen",
        "elevation": 418.0,
        "start_date": "19860401",
        "end_date": "20250905",
        "federal_state": "Bayern"
      }
    },
    {
      "type": "Feature",
      "geometry": {
        "type": "Point",
        "coordinates": [
          13.4344,
          54.6791
        ]
      },
      "properties": {
        "station_id": "00183",
        "station_name": "Arkona",
        "elevation": 42.0,
        "start_date": "19510101",
        "end_date": "20250905",
        "federal_state": "Mecklenburg-Vorpommern"
      }
    },
    {
      "type": "Feature",
      "geometry": {
        "type": "Point",
        "coordinates": [
          7.9126,
          51.4188
        ]
      },
      "properties": {
        "station_id": "00187",
        "station_name": "Arnsberg-Holzen",
        "elevation": 265.0,
        "start_date": "19410101",
        "end_date": "20250905",
        "federal_state": "Nordrhein-Westfalen"
      }
    },
    {
      "type": "Feature",
      "geometry": {
        "type": "Point",
        "coordinates": [
          9.9114,
          49.9694
        ]
      },
      "properties": {
        "station_id": "00191",
        "station_name": "Arnstein-Müdesheim",
        "elevation": 217.0,
        "start_date": "19860401",
        "end_date": "20250905",
        "federal_state": "Bayern"
      }
    },
    {
      "type": "Feature",
      "geometry": {
        "type": "Point",
        "coordinates": [
          9.0763,
          51.3431
        ]
      },
      "properties": {
        "station_id": "00194",
        "station_name": "Arolsen-Landau, Bad",
        "elevation": 265.0,
        "start_date": "19310101",
        "end_date": "20250905",
        "federal_state": "Hessen"
      }
    },
    {
      "type": "Feature",
      "geometry": {
        "type": "Point",
        "coordinates": [
          11.292,
          51.3744
        ]
      },
      "properties": {
        "station_id": "00198",
        "station_name": "Artern",
        "elevation": 164.0,
        "start_date": "18900801",
        "end_date": "20250905",
        "federal_state": "Thüringen"
      }
    },
    {
      "type": "Feature",
      "geometry": {
        "type": "Point",
        "coordinates": [
          6.3161,
          50.085
        ]
      },
      "properties": {
        "station_id": "00200",
        "station_name": "Lauperath-Scheidchen",
        "elevation": 517.0,
        "start_date": "19510101",
        "end_date": "20250905",
        "federal_state": "Rheinland-Pfalz"
      }
    },
    {
      "type": "Feature",
      "geometry": {
        "type": "Point",
        "coordinates": [
          7.4459,
          50.6661
        ]
      },
      "properties": {
        "station_id": "00201",
        "station_name": "Asbach",
        "elevation": 255.0,
        "start_date": "19510101",
        "end_date": "20250905",
        "federal_state": "Rheinland-Pfalz"
      }
    },
    {
      "type": "Feature",
      "geometry": {
        "type": "Point",
        "coordinates": [
          9.1091,
          49.9771
        ]
      },
      "properties": {
        "station_id": "00202",
        "station_name": "Aschaffenburg",
        "elevation": 111.0,
        "start_date": "19410101",
        "end_date": "20250905",
        "federal_state": "Bayern"
      }
    },
    {
      "type": "Feature",
      "geometry": {
        "type": "Point",
        "coordinates": [
          12.3368,
          47.786
        ]
      },
      "properties": {
        "station_id": "00203",
        "station_name": "Aschau-Innerkoy",
        "elevation": 607.0,
        "start_date": "19310101",
        "end_date": "20250905",
        "federal_state": "Bayern"
      }
    },
    {
      "type": "Feature",
      "geometry": {
        "type": "Point",
        "coordinates": [
          12.2982,
          47.7275
        ]
      },
      "properties": {
        "station_id": "00205",
        "station_name": "Aschau-Stein",
        "elevation": 681.0,
        "start_date": "19310101",
        "end_date": "20250905",
        "federal_state": "Bayern"
      }
    },
    {
      "type": "Feature",
      "geometry": {
        "type": "Point",
        "coordinates": [
          8.4685,
          50.58
        ]
      },
      "properties": {
        "station_id": "00211",
        "station_name": "Aßlar Klein-Altenstädten",
        "elevation": 200.0,
        "start_date": "19810901",
        "end_date": "20250905",
        "federal_state": "Hessen"
      }
    },
    {
      "type": "Feature",
      "geometry": {
        "type": "Point",
        "coordinates": [
          10.9897,
          51.9375
        ]
      },
      "properties": {
        "station_id": "00213",
        "station_name": "Sargstedt",
        "elevation": 170.0,
        "start_date": "18980601",
        "end_date": "20250905",
        "federal_state": "Sachsen-Anhalt"
      }
    },
    {
      "type": "Feature",
      "geometry": {
        "type": "Point",
        "coordinates": [
          7.8807,
          51.1143
        ]
      },
      "properties": {
        "station_id": "00216",
        "station_name": "Attendorn-Neulisternohl",
        "elevation": 298.0,
        "start_date": "19710101",
        "end_date": "20250905",
        "federal_state": "Nordrhein-Westfalen"
      }
    },
    {
      "type": "Feature",
      "geometry": {
        "type": "Point",
        "coordinates": [
          11.3643,
          47.8774
        ]
      },
      "properties": {
        "station_id": "00217",
        "station_name": "Attenkam",
        "elevation": 670.0,
        "start_date": "19410101",
        "end_date": "20250905",
        "federal_state": "Bayern"
      }
    },
    {
      "type": "Feature",
      "geometry": {
        "type": "Point",
        "coordinates": [
          12.7139,
          50.5908
        ]
      },
      "properties": {
        "station_id": "00222",
        "station_name": "Aue",
        "elevation": 393.0,
        "start_date": "19450401",
        "end_date": "20250905",
        "federal_state": "Sachsen"
      }
    },
    {
      "type": "Feature",
      "geometry": {
        "type": "Point",
        "coordinates": [
          11.6235,
          49.7007
        ]
      },
      "properties": {
        "station_id": "00223",
        "station_name": "Auerbach/Oberpfalz",
        "elevation": 419.0,
        "start_date": "19310101",
        "end_date": "20250905",
        "federal_state": "Bayern"
      }
    },
    {
      "type": "Feature",
      "geometry": {
        "type": "Point",
        "coordinates": [
          11.2656,
          49.8823
        ]
      },
      "properties": {
        "station_id": "00227",
        "station_name": "Aufseß-Hochstahl",
        "elevation": 432.0,
        "start_date": "19410101",
        "end_date": "20250905",
        "federal_state": "Bayern"
      }
    },
    {
      "type": "Feature",
      "geometry": {
        "type": "Point",
        "coordinates": [
          10.9417,
          48.4253
        ]
      },
      "properties": {
        "station_id": "00232",
        "station_name": "Augsburg",
        "elevation": 462.0,
        "start_date": "19470101",
        "end_date": "20250905",
        "federal_state": "Bayern"
      }
    },
    {
      "type": "Feature",
      "geometry": {
        "type": "Point",
        "coordinates": [
          9.5743,
          50.1805
        ]
      },
      "properties": {
        "station_id": "00240",
        "station_name": "Aura im Sinngrund",
        "elevation": 293.0,
        "start_date": "19930701",
        "end_date": "20250905",
        "federal_state": "Bayern"
      }
    },
    {
      "type": "Feature",
      "geometry": {
        "type": "Point",
        "coordinates": [
          7.5756,
          53.4551
        ]
      },
      "properties": {
        "station_id": "00245",
        "station_name": "Aurich-Wiesens",
        "elevation": 8.0,
        "start_date": "19710101",
        "end_date": "20250905",
        "federal_state": "Niedersachsen"
      }
    },
    {
      "type": "Feature",
      "geometry": {
        "type": "Point",
        "coordinates": [
          8.2457,
          48.727
        ]
      },
      "properties": {
        "station_id": "00257",
        "station_name": "Baden-Baden-Geroldsau",
        "elevation": 240.0,
        "start_date": "19490101",
        "end_date": "20250905",
        "federal_state": "Baden-Württemberg"
      }
    },
    {
      "type": "Feature",
      "geometry": {
        "type": "Point",
        "coordinates": [
          7.6387,
          47.8064
        ]
      },
      "properties": {
        "station_id": "00259",
        "station_name": "Müllheim",
        "elevation": 275.0,
        "start_date": "19470101",
        "end_date": "20250905",
        "federal_state": "Baden-Württemberg"
      }
    },
    {
      "type": "Feature",
      "geometry": {
        "type": "Point",
        "coordinates": [
          12.4288,
          49.7983
        ]
      },
      "properties": {
        "station_id": "00262",
        "station_name": "Bärnau-Naab",
        "elevation": 607.0,
        "start_date": "19310101",
        "end_date": "20250905",
        "federal_state": "Bayern"
      }
    },
    {
      "type": "Feature",
      "geometry": {
        "type": "Point",
        "coordinates": [
          8.3176,
          48.5116
        ]
      },
      "properties": {
        "station_id": "00269",
        "station_name": "Baiersbronn-Mitteltal",
        "elevation": 599.0,
        "start_date": "19860901",
        "end_date": "20250905",
        "federal_state": "Baden-Württemberg"
      }
    },
    {
      "type": "Feature",
      "geometry": {
        "type": "Point",
        "coordinates": [
          10.1043,
          47.465
        ]
      },
      "properties": {
        "station_id": "00275",
        "station_name": "Balderschwang",
        "elevation": 1039.0,
        "start_date": "19510101",
        "end_date": "20250905",
        "federal_state": "Bayern"
      }
    },
    {
      "type": "Feature",
      "geometry": {
        "type": "Point",
        "coordinates": [
          8.883,
          48.2772
        ]
      },
      "properties": {
        "station_id": "00277",
        "station_name": "Balingen-Heselwangen",
        "elevation": 573.0,
        "start_date": "19310101",
        "end_date": "20250905",
        "federal_state": "Baden-Württemberg"
      }
    },
    {
      "type": "Feature",
      "geometry": {
        "type": "Point",
        "coordinates": [
          9.4514,
          48.7574
        ]
      },
      "properties": {
        "station_id": "00279",
        "station_name": "Baltmannsweiler-Hohengehren",
        "elevation": 457.0,
        "start_date": "19410101",
        "end_date": "20250905",
        "federal_state": "Baden-Württemberg"
      }
    },
    {
      "type": "Feature",
      "geometry": {
        "type": "Point",
        "coordinates": [
          10.9206,
          49.8743
        ]
      },
      "properties": {
        "station_id": "00282",
        "station_name": "Bamberg",
        "elevation": 240.0,
        "start_date": "19490101",
        "end_date": "20250905",
        "federal_state": "Bayern"
      }
    },
    {
      "type": "Feature",
      "geometry": {
        "type": "Point",
        "coordinates": [
          11.9159,
          51.961
        ]
      },
      "properties": {
        "station_id": "00287",
        "station_name": "Walternienburg-Ronney",
        "elevation": 53.0,
        "start_date": "19520112",
        "end_date": "20250905",
        "federal_state": "Sachsen-Anhalt"
      }
    },
    {
      "type": "Feature",
      "geometry": {
        "type": "Point",
        "coordinates": [
          10.2514,
          53.7275
        ]
      },
      "properties": {
        "station_id": "00289",
        "station_name": "Bargteheide",
        "elevation": 47.0,
        "start_date": "18910501",
        "end_date": "20250905",
        "federal_state": "Schleswig-Holstein"
      }
    },
    {
      "type": "Feature",
      "geometry": {
        "type": "Point",
        "coordinates": [
          11.079,
          52.1175
        ]
      },
      "properties": {
        "station_id": "00290",
        "station_name": "Hötensleben-Barneberg",
        "elevation": 141.0,
        "start_date": "19470901",
        "end_date": "20250905",
        "federal_state": "Sachsen-Anhalt"
      }
    },
    {
      "type": "Feature",
      "geometry": {
        "type": "Point",
        "coordinates": [
          8.487,
          52.6965
        ]
      },
      "properties": {
        "station_id": "00292",
        "station_name": "Barnstorf",
        "elevation": 37.0,
        "start_date": "19800201",
        "end_date": "20250905",
        "federal_state": "Niedersachsen"
      }
    },
    {
      "type": "Feature",
      "geometry": {
        "type": "Point",
        "coordinates": [
          9.43,
          52.3199
        ]
      },
      "properties": {
        "station_id": "00294",
        "station_name": "Barsinghausen-Hohenbostel",
        "elevation": 110.0,
        "start_date": "19920201",
        "end_date": "20250905",
        "federal_state": "Niedersachsen"
      }
    },
    {
      "type": "Feature",
      "geometry": {
        "type": "Point",
        "coordinates": [
          7.7966,
          53.1665
        ]
      },
      "properties": {
        "station_id": "00296",
        "station_name": "Barßel-Loher Ostmark",
        "elevation": 3.0,
        "start_date": "19510101",
        "end_date": "20250902",
        "federal_state": "Niedersachsen"
      }
    },
    {
      "type": "Feature",
      "geometry": {
        "type": "Point",
        "coordinates": [
          12.7108,
          54.3405
        ]
      },
      "properties": {
        "station_id": "00298",
        "station_name": "Barth",
        "elevation": 3.0,
        "start_date": "19760101",
        "end_date": "20250905",
        "federal_state": "Mecklenburg-Vorpommern"
      }
    },
    {
      "type": "Feature",
      "geometry": {
        "type": "Point",
        "coordinates": [
          9.9855,
          48.7584
        ]
      },
      "properties": {
        "station_id": "00301",
        "station_name": "Bartholomä",
        "elevation": 659.0,
        "start_date": "19610101",
        "end_date": "20250905",
        "federal_state": "Baden-Württemberg"
      }
    },
    {
      "type": "Feature",
      "geometry": {
        "type": "Point",
        "coordinates": [
          13.4997,
          52.0613
        ]
      },
      "properties": {
        "station_id": "00303",
        "station_name": "Baruth",
        "elevation": 55.0,
        "start_date": "19690101",
        "end_date": "20250905",
        "federal_state": "Brandenburg"
      }
    },
    {
      "type": "Feature",
      "geometry": {
        "type": "Point",
        "coordinates": [
          8.6693,
          51.0028
        ]
      },
      "properties": {
        "station_id": "00309",
        "station_name": "Battenberg-Berghofen",
        "elevation": 328.0,
        "start_date": "19410101",
        "end_date": "20250905",
        "federal_state": "Hessen"
      }
    },
    {
      "type": "Feature",
      "geometry": {
        "type": "Point",
        "coordinates": [
          8.5375,
          51.0662
        ]
      },
      "properties": {
        "station_id": "00310",
        "station_name": "Battenberg-Hof Karlsburg",
        "elevation": 590.0,
        "start_date": "19510101",
        "end_date": "20250905",
        "federal_state": "Hessen"
      }
    },
    {
      "type": "Feature",
      "geometry": {
        "type": "Point",
        "coordinates": [
          11.8818,
          53.8149
        ]
      },
      "properties": {
        "station_id": "00312",
        "station_name": "Baumgarten",
        "elevation": 50.0,
        "start_date": "19690101",
        "end_date": "20250905",
        "federal_state": "Mecklenburg-Vorpommern"
      }
    },
    {
      "type": "Feature",
      "geometry": {
        "type": "Point",
        "coordinates": [
          14.5042,
          51.1604
        ]
      },
      "properties": {
        "station_id": "00314",
        "station_name": "Kubschütz, Kr. Bautzen",
        "elevation": 234.0,
        "start_date": "19360101",
        "end_date": "20250905",
        "federal_state": "Sachsen"
      }
    },
    {
      "type": "Feature",
      "geometry": {
        "type": "Point",
        "coordinates": [
          10.9954,
          47.6921
        ]
      },
      "properties": {
        "station_id": "00318",
        "station_name": "Bayersoien, Bad",
        "elevation": 811.0,
        "start_date": "19310101",
        "end_date": "20250905",
        "federal_state": "Bayern"
      }
    },
    {
      "type": "Feature",
      "geometry": {
        "type": "Point",
        "coordinates": [
          10.5024,
          47.9209
        ]
      },
      "properties": {
        "station_id": "00319",
        "station_name": "Eggenthal-Grub",
        "elevation": 753.0,
        "start_date": "19510101",
        "end_date": "20250905",
        "federal_state": "Bayern"
      }
    },
    {
      "type": "Feature",
      "geometry": {
        "type": "Point",
        "coordinates": [
          11.5198,
          49.9666
        ]
      },
      "properties": {
        "station_id": "00320",
        "station_name": "Heinersreuth-Vollhof",
        "elevation": 350.0,
        "start_date": "18790101",
        "end_date": "20250905",
        "federal_state": "Bayern"
      }
    },
    {
      "type": "Feature",
      "geometry": {
        "type": "Point",
        "coordinates": [
          10.5918,
          49.1626
        ]
      },
      "properties": {
        "station_id": "00323",
        "station_name": "Bechhofen/Voggendorf",
        "elevation": 425.0,
        "start_date": "20040314",
        "end_date": "20250905",
        "federal_state": "Bayern"
      }
    },
    {
      "type": "Feature",
      "geometry": {
        "type": "Point",
        "coordinates": [
          8.0718,
          51.7948
        ]
      },
      "properties": {
        "station_id": "00325",
        "station_name": "Beckum-Vellern",
        "elevation": 127.0,
        "start_date": "19410101",
        "end_date": "20250905",
        "federal_state": "Nordrhein-Westfalen"
      }
    },
    {
      "type": "Feature",
      "geometry": {
        "type": "Point",
        "coordinates": [
          8.9673,
          49.5617
        ]
      },
      "properties": {
        "station_id": "00330",
        "station_name": "Oberzent-Beerfelden",
        "elevation": 455.0,
        "start_date": "19310101",
        "end_date": "20250905",
        "federal_state": "Hessen"
      }
    },
    {
      "type": "Feature",
      "geometry": {
        "type": "Point",
        "coordinates": [
          14.2361,
          52.1864
        ]
      },
      "properties": {
        "station_id": "00333",
        "station_name": "Beeskow",
        "elevation": 44.0,
        "start_date": "19510101",
        "end_date": "20250905",
        "federal_state": "Brandenburg"
      }
    },
    {
      "type": "Feature",
      "geometry": {
        "type": "Point",
        "coordinates": [
          10.5148,
          51.0221
        ]
      },
      "properties": {
        "station_id": "00336",
        "station_name": "Hörselberg-Hainich-Behringen",
        "elevation": 290.0,
        "start_date": "18870101",
        "end_date": "20250905",
        "federal_state": "Thüringen"
      }
    },
    {
      "type": "Feature",
      "geometry": {
        "type": "Point",
        "coordinates": [
          8.1694,
          52.317
        ]
      },
      "properties": {
        "station_id": "00342",
        "station_name": "Belm",
        "elevation": 103.0,
        "start_date": "19940601",
        "end_date": "20250905",
        "federal_state": "Niedersachsen"
      }
    },
    {
      "type": "Feature",
      "geometry": {
        "type": "Point",
        "coordinates": [
          11.4137,
          47.7064
        ]
      },
      "properties": {
        "station_id": "00349",
        "station_name": "Benediktbeuern",
        "elevation": 635.0,
        "start_date": "18910901",
        "end_date": "20250905",
        "federal_state": "Bayern"
      }
    },
    {
      "type": "Feature",
      "geometry": {
        "type": "Point",
        "coordinates": [
          10.6978,
          51.6926
        ]
      },
      "properties": {
        "station_id": "00351",
        "station_name": "Oberharz am Brocken-Sorge",
        "elevation": 502.0,
        "start_date": "19461001",
        "end_date": "20250904",
        "federal_state": "Sachsen-Anhalt"
      }
    },
    {
      "type": "Feature",
      "geometry": {
        "type": "Point",
        "coordinates": [
          7.1301,
          52.3018
        ]
      },
      "properties": {
        "station_id": "00357",
        "station_name": "Bentheim, Bad",
        "elevation": 50.0,
        "start_date": "19410101",
        "end_date": "20250905",
        "federal_state": "Niedersachsen"
      }
    },
    {
      "type": "Feature",
      "geometry": {
        "type": "Point",
        "coordinates": [
          11.796,
          49.1022
        ]
      },
      "properties": {
        "station_id": "00359",
        "station_name": "Beratzhausen",
        "elevation": 464.0,
        "start_date": "19510101",
        "end_date": "20250905",
        "federal_state": "Bayern"
      }
    },
    {
      "type": "Feature",
      "geometry": {
        "type": "Point",
        "coordinates": [
          11.4329,
          49.1116
        ]
      },
      "properties": {
        "station_id": "00360",
        "station_name": "Berching",
        "elevation": 403.0,
        "start_date": "19510101",
        "end_date": "20250905",
        "federal_state": "Bayern"
      }
    },
    {
      "type": "Feature",
      "geometry": {
        "type": "Point",
        "coordinates": [
          13.056,
          47.6525
        ]
      },
      "properties": {
        "station_id": "00364",
        "station_name": "Berchtesgaden-Oberau",
        "elevation": 716.0,
        "start_date": "19910201",
        "end_date": "20250905",
        "federal_state": "Bayern"
      }
    },
    {
      "type": "Feature",
      "geometry": {
        "type": "Point",
        "coordinates": [
          12.1673,
          50.7524
        ]
      },
      "properties": {
        "station_id": "00366",
        "station_name": "Berga/Elster",
        "elevation": 265.0,
        "start_date": "19460531",
        "end_date": "20250905",
        "federal_state": "Thüringen"
      }
    },
    {
      "type": "Feature",
      "geometry": {
        "type": "Point",
        "coordinates": [
          13.4379,
          54.4215
        ]
      },
      "properties": {
        "station_id": "00371",
        "station_name": "Bergen/Rügen",
        "elevation": 82.0,
        "start_date": "18970501",
        "end_date": "20250905",
        "federal_state": "Mecklenburg-Vorpommern"
      }
    },
    {
      "type": "Feature",
      "geometry": {
        "type": "Point",
        "coordinates": [
          10.0653,
          49.8981
        ]
      },
      "properties": {
        "station_id": "00376",
        "station_name": "Bergtheim",
        "elevation": 270.0,
        "start_date": "18990101",
        "end_date": "20250905",
        "federal_state": "Bayern"
      }
    },
    {
      "type": "Feature",
      "geometry": {
        "type": "Point",
        "coordinates": [
          7.9967,
          49.107
        ]
      },
      "properties": {
        "station_id": "00377",
        "station_name": "Bergzabern, Bad",
        "elevation": 210.0,
        "start_date": "19410101",
        "end_date": "20250905",
        "federal_state": "Rheinland-Pfalz"
      }
    },
    {
      "type": "Feature",
      "geometry": {
        "type": "Point",
        "coordinates": [
          10.1078,
          51.6842
        ]
      },
      "properties": {
        "station_id": "00378",
        "station_name": "Berka",
        "elevation": 134.0,
        "start_date": "19510101",
        "end_date": "20250905",
        "federal_state": "Niedersachsen"
      }
    },
    {
      "type": "Feature",
      "geometry": {
        "type": "Point",
        "coordinates": [
          11.2665,
          50.9075
        ]
      },
      "properties": {
        "station_id": "00379",
        "station_name": "Berka, Bad (Flugplatz)",
        "elevation": 304.0,
        "start_date": "19540701",
        "end_date": "20250905",
        "federal_state": "Thüringen"
      }
    },
    {
      "type": "Feature",
      "geometry": {
        "type": "Point",
        "coordinates": [
          8.4318,
          51.0148
        ]
      },
      "properties": {
        "station_id": "00389",
        "station_name": "Berleburg, Bad-Arfeld",
        "elevation": 436.0,
        "start_date": "19310101",
        "end_date": "20250905",
        "federal_state": "Nordrhein-Westfalen"
      }
    },
    {
      "type": "Feature",
      "geometry": {
        "type": "Point",
        "coordinates": [
          8.3683,
          50.9837
        ]
      },
      "properties": {
        "station_id": "00390",
        "station_name": "Berleburg, Bad-Stünzel",
        "elevation": 611.0,
        "start_date": "19861201",
        "end_date": "20250905",
        "federal_state": "Nordrhein-Westfalen"
      }
    },
    {
      "type": "Feature",
      "geometry": {
        "type": "Point",
        "coordinates": [
          13.5021,
          52.631
        ]
      },
      "properties": {
        "station_id": "00400",
        "station_name": "Berlin-Buch",
        "elevation": 60.0,
        "start_date": "19510101",
        "end_date": "20250905",
        "federal_state": "Berlin"
      }
    },
    {
      "type": "Feature",
      "geometry": {
        "type": "Point",
        "coordinates": [
          13.3017,
          52.4537
        ]
      },
      "properties": {
        "station_id": "00403",
        "station_name": "Berlin-Dahlem (FU)",
        "elevation": 51.0,
        "start_date": "19500101",
        "end_date": "20250905",
        "federal_state": "Berlin"
      }
    },
    {
      "type": "Feature",
      "geometry": {
        "type": "Point",
        "coordinates": [
          13.5598,
          52.5447
        ]
      },
      "properties": {
        "station_id": "00420",
        "station_name": "Berlin-Marzahn",
        "elevation": 61.0,
        "start_date": "19930501",
        "end_date": "20250905",
        "federal_state": "Berlin"
      }
    },
    {
      "type": "Feature",
      "geometry": {
        "type": "Point",
        "coordinates": [
          13.6236,
          52.3823
        ]
      },
      "properties": {
        "station_id": "00426",
        "station_name": "Berlin-Schmöckwitz",
        "elevation": 36.0,
        "start_date": "19690101",
        "end_date": "20250905",
        "federal_state": "Berlin"
      }
    },
    {
      "type": "Feature",
      "geometry": {
        "type": "Point",
        "coordinates": [
          13.5306,
          52.3807
        ]
      },
      "properties": {
        "station_id": "00427",
        "station_name": "Berlin Brandenburg",
        "elevation": 46.0,
        "start_date": "19570101",
        "end_date": "20250905",
        "federal_state": "Brandenburg"
      }
    },
    {
      "type": "Feature",
      "geometry": {
        "type": "Point",
        "coordinates": [
          13.402,
          52.4676
        ]
      },
      "properties": {
        "station_id": "00433",
        "station_name": "Berlin-Tempelhof",
        "elevation": 48.0,
        "start_date": "19480101",
        "end_date": "20250905",
        "federal_state": "Berlin"
      }
    },
    {
      "type": "Feature",
      "geometry": {
        "type": "Point",
        "coordinates": [
          8.0256,
          47.815
        ]
      },
      "properties": {
        "station_id": "00440",
        "station_name": "Bernau-Goldbach",
        "elevation": 928.0,
        "start_date": "19410101",
        "end_date": "20250905",
        "federal_state": "Baden-Württemberg"
      }
    },
    {
      "type": "Feature",
      "geometry": {
        "type": "Point",
        "coordinates": [
          10.7448,
          47.7388
        ]
      },
      "properties": {
        "station_id": "00443",
        "station_name": "Bernbeuren-Prachtsried",
        "elevation": 936.0,
        "start_date": "20040314",
        "end_date": "20250905",
        "federal_state": "Bayern"
      }
    },
    {
      "type": "Feature",
      "geometry": {
        "type": "Point",
        "coordinates": [
          11.711,
          51.8218
        ]
      },
      "properties": {
        "station_id": "00445",
        "station_name": "Bernburg/Saale (Nord)",
        "elevation": 85.0,
        "start_date": "18980101",
        "end_date": "20250905",
        "federal_state": "Sachsen-Anhalt"
      }
    },
    {
      "type": "Feature",
      "geometry": {
        "type": "Point",
        "coordinates": [
          8.5395,
          53.1553
        ]
      },
      "properties": {
        "station_id": "00446",
        "station_name": "Berne-Katjenbüttel",
        "elevation": 1.0,
        "start_date": "19270801",
        "end_date": "20250905",
        "federal_state": "Niedersachsen"
      }
    },
    {
      "type": "Feature",
      "geometry": {
        "type": "Point",
        "coordinates": [
          11.6479,
          50.0415
        ]
      },
      "properties": {
        "station_id": "00447",
        "station_name": "Berneck, Bad",
        "elevation": 366.0,
        "start_date": "19310101",
        "end_date": "20250905",
        "federal_state": "Bayern"
      }
    },
    {
      "type": "Feature",
      "geometry": {
        "type": "Point",
        "coordinates": [
          6.6868,
          49.2641
        ]
      },
      "properties": {
        "station_id": "00460",
        "station_name": "Berus",
        "elevation": 362.0,
        "start_date": "19510101",
        "end_date": "20250905",
        "federal_state": "Saarland"
      }
    },
    {
      "type": "Feature",
      "geometry": {
        "type": "Point",
        "coordinates": [
          6.9175,
          49.7291
        ]
      },
      "properties": {
        "station_id": "00468",
        "station_name": "Beuren (Hochwald)",
        "elevation": 505.0,
        "start_date": "20071101",
        "end_date": "20250905",
        "federal_state": "Rheinland-Pfalz"
      }
    },
    {
      "type": "Feature",
      "geometry": {
        "type": "Point",
        "coordinates": [
          10.8119,
          48.5347
        ]
      },
      "properties": {
        "station_id": "00475",
        "station_name": "Biberbach-Markt",
        "elevation": 437.0,
        "start_date": "18990201",
        "end_date": "20250905",
        "federal_state": "Bayern"
      }
    },
    {
      "type": "Feature",
      "geometry": {
        "type": "Point",
        "coordinates": [
          8.4179,
          49.6896
        ]
      },
      "properties": {
        "station_id": "00476",
        "station_name": "Biblis",
        "elevation": 88.0,
        "start_date": "19410101",
        "end_date": "20250904",
        "federal_state": "Hessen"
      }
    },
    {
      "type": "Feature",
      "geometry": {
        "type": "Point",
        "coordinates": [
          9.2892,
          50.2435
        ]
      },
      "properties": {
        "station_id": "00479",
        "station_name": "Wächtersbach",
        "elevation": 138.0,
        "start_date": "19310101",
        "end_date": "20250905",
        "federal_state": "Hessen"
      }
    },
    {
      "type": "Feature",
      "geometry": {
        "type": "Point",
        "coordinates": [
          8.4937,
          50.9275
        ]
      },
      "properties": {
        "station_id": "00480",
        "station_name": "Biedenkopf-Wallau",
        "elevation": 296.0,
        "start_date": "18930101",
        "end_date": "20250905",
        "federal_state": "Hessen"
      }
    },
    {
      "type": "Feature",
      "geometry": {
        "type": "Point",
        "coordinates": [
          8.5932,
          51.9394
        ]
      },
      "properties": {
        "station_id": "00488",
        "station_name": "Bielefeld-Sennestadt",
        "elevation": 127.0,
        "start_date": "19410101",
        "end_date": "20250905",
        "federal_state": "Nordrhein-Westfalen"
      }
    },
    {
      "type": "Feature",
      "geometry": {
        "type": "Point",
        "coordinates": [
          10.4902,
          53.1173
        ]
      },
      "properties": {
        "station_id": "00490",
        "station_name": "Bienenbüttel-Bargdorf",
        "elevation": 31.0,
        "start_date": "19710101",
        "end_date": "20250905",
        "federal_state": "Niedersachsen"
      }
    },
    {
      "type": "Feature",
      "geometry": {
        "type": "Point",
        "coordinates": [
          13.6045,
          54.3941
        ]
      },
      "properties": {
        "station_id": "00496",
        "station_name": "Binz",
        "elevation": 26.0,
        "start_date": "19460801",
        "end_date": "20250901",
        "federal_state": "Mecklenburg-Vorpommern"
      }
    },
    {
      "type": "Feature",
      "geometry": {
        "type": "Point",
        "coordinates": [
          8.3111,
          47.7452
        ]
      },
      "properties": {
        "station_id": "00498",
        "station_name": "Ühlingen-Birkendorf",
        "elevation": 763.0,
        "start_date": "19010101",
        "end_date": "20250905",
        "federal_state": "Baden-Württemberg"
      }
    },
    {
      "type": "Feature",
      "geometry": {
        "type": "Point",
        "coordinates": [
          13.9716,
          51.7982
        ]
      },
      "properties": {
        "station_id": "00504",
        "station_name": "Lübbenau/Spreewald-Bischdorf",
        "elevation": 79.0,
        "start_date": "19690101",
        "end_date": "20250905",
        "federal_state": "Brandenburg"
      }
    },
    {
      "type": "Feature",
      "geometry": {
        "type": "Point",
        "coordinates": [
          11.7936,
          50.0509
        ]
      },
      "properties": {
        "station_id": "00509",
        "station_name": "Bischofsgrün (Hohe Reuth)",
        "elevation": 664.0,
        "start_date": "19410101",
        "end_date": "20250905",
        "federal_state": "Bayern"
      }
    },
    {
      "type": "Feature",
      "geometry": {
        "type": "Point",
        "coordinates": [
          12.9253,
          47.6523
        ]
      },
      "properties": {
        "station_id": "00515",
        "station_name": "Bischofswiesen-Loipl",
        "elevation": 867.0,
        "start_date": "19310101",
        "end_date": "20250905",
        "federal_state": "Bayern"
      }
    },
    {
      "type": "Feature",
      "geometry": {
        "type": "Point",
        "coordinates": [
          12.9412,
          47.6871
        ]
      },
      "properties": {
        "station_id": "00516",
        "station_name": "Bischofswiesen-Winkl",
        "elevation": 689.0,
        "start_date": "19310101",
        "end_date": "20250905",
        "federal_state": "Bayern"
      }
    },
    {
      "type": "Feature",
      "geometry": {
        "type": "Point",
        "coordinates": [
          10.0693,
          53.1158
        ]
      },
      "properties": {
        "station_id": "00518",
        "station_name": "Bispingen-Steinbeck/Luhe",
        "elevation": 98.0,
        "start_date": "18910701",
        "end_date": "20250905",
        "federal_state": "Niedersachsen"
      }
    },
    {
      "type": "Feature",
      "geometry": {
        "type": "Point",
        "coordinates": [
          10.6283,
          48.7092
        ]
      },
      "properties": {
        "station_id": "00522",
        "station_name": "Bissingen (Kläranlage)",
        "elevation": 425.0,
        "start_date": "20050101",
        "end_date": "20250905",
        "federal_state": "Bayern"
      }
    },
    {
      "type": "Feature",
      "geometry": {
        "type": "Point",
        "coordinates": [
          10.9714,
          51.7901
        ]
      },
      "properties": {
        "station_id": "00527",
        "station_name": "Blankenburg/Harz",
        "elevation": 194.0,
        "start_date": "19310401",
        "end_date": "20250905",
        "federal_state": "Sachsen-Anhalt"
      }
    },
    {
      "type": "Feature",
      "geometry": {
        "type": "Point",
        "coordinates": [
          6.7376,
          50.3844
        ]
      },
      "properties": {
        "station_id": "00533",
        "station_name": "Blankenheim-Ahrhütte",
        "elevation": 401.0,
        "start_date": "19610101",
        "end_date": "20250904",
        "federal_state": "Nordrhein-Westfalen"
      }
    },
    {
      "type": "Feature",
      "geometry": {
        "type": "Point",
        "coordinates": [
          7.3079,
          50.0372
        ]
      },
      "properties": {
        "station_id": "00535",
        "station_name": "Blankenrath",
        "elevation": 417.0,
        "start_date": "19310101",
        "end_date": "20250905",
        "federal_state": "Rheinland-Pfalz"
      }
    },
    {
      "type": "Feature",
      "geometry": {
        "type": "Point",
        "coordinates": [
          9.7443,
          48.4369
        ]
      },
      "properties": {
        "station_id": "00537",
        "station_name": "Blaubeuren-Wennenden",
        "elevation": 705.0,
        "start_date": "19310101",
        "end_date": "20250905",
        "federal_state": "Baden-Württemberg"
      }
    },
    {
      "type": "Feature",
      "geometry": {
        "type": "Point",
        "coordinates": [
          10.8522,
          53.2401
        ]
      },
      "properties": {
        "station_id": "00542",
        "station_name": "Bleckede-Walmsburg",
        "elevation": 12.0,
        "start_date": "19410101",
        "end_date": "20250905",
        "federal_state": "Niedersachsen"
      }
    },
    {
      "type": "Feature",
      "geometry": {
        "type": "Point",
        "coordinates": [
          11.7985,
          50.9041
        ]
      },
      "properties": {
        "station_id": "00550",
        "station_name": "Bobeck",
        "elevation": 344.0,
        "start_date": "19940501",
        "end_date": "20250905",
        "federal_state": "Thüringen"
      }
    },
    {
      "type": "Feature",
      "geometry": {
        "type": "Point",
        "coordinates": [
          11.9955,
          50.3887
        ]
      },
      "properties": {
        "station_id": "00551",
        "station_name": "Weischlitz-Heinersgrün",
        "elevation": 519.0,
        "start_date": "19510101",
        "end_date": "20250905",
        "federal_state": "Sachsen"
      }
    },
    {
      "type": "Feature",
      "geometry": {
        "type": "Point",
        "coordinates": [
          10.8214,
          48.2637
        ]
      },
      "properties": {
        "station_id": "00552",
        "station_name": "Bobingen",
        "elevation": 515.0,
        "start_date": "19310101",
        "end_date": "20250905",
        "federal_state": "Bayern"
      }
    },
    {
      "type": "Feature",
      "geometry": {
        "type": "Point",
        "coordinates": [
          6.5365,
          51.8293
        ]
      },
      "properties": {
        "station_id": "00554",
        "station_name": "Bocholt-Liedern (Wasserwerk)",
        "elevation": 23.0,
        "start_date": "19460101",
        "end_date": "20250905",
        "federal_state": "Nordrhein-Westfalen"
      }
    },
    {
      "type": "Feature",
      "geometry": {
        "type": "Point",
        "coordinates": [
          7.2289,
          51.5026
        ]
      },
      "properties": {
        "station_id": "00555",
        "station_name": "Bochum",
        "elevation": 110.0,
        "start_date": "19310101",
        "end_date": "20250905",
        "federal_state": "Nordrhein-Westfalen"
      }
    },
    {
      "type": "Feature",
      "geometry": {
        "type": "Point",
        "coordinates": [
          10.1322,
          52.0145
        ]
      },
      "properties": {
        "station_id": "00560",
        "station_name": "Bockenem",
        "elevation": 123.0,
        "start_date": "19801001",
        "end_date": "20250905",
        "federal_state": "Niedersachsen"
      }
    },
    {
      "type": "Feature",
      "geometry": {
        "type": "Point",
        "coordinates": [
          7.9679,
          53.367
        ]
      },
      "properties": {
        "station_id": "00561",
        "station_name": "Bockhorn-Grabstede",
        "elevation": 11.0,
        "start_date": "19850201",
        "end_date": "20250905",
        "federal_state": "Niedersachsen"
      }
    },
    {
      "type": "Feature",
      "geometry": {
        "type": "Point",
        "coordinates": [
          12.0032,
          48.3285
        ]
      },
      "properties": {
        "station_id": "00562",
        "station_name": "Bockhorn/Oberbayern -Grünbach",
        "elevation": 454.0,
        "start_date": "19310101",
        "end_date": "20250905",
        "federal_state": "Bayern"
      }
    },
    {
      "type": "Feature",
      "geometry": {
        "type": "Point",
        "coordinates": [
          9.5135,
          51.6957
        ]
      },
      "properties": {
        "station_id": "00567",
        "station_name": "Bodenfelde-Amelith",
        "elevation": 260.0,
        "start_date": "19310101",
        "end_date": "20250905",
        "federal_state": "Niedersachsen"
      }
    },
    {
      "type": "Feature",
      "geometry": {
        "type": "Point",
        "coordinates": [
          12.24,
          49.2986
        ]
      },
      "properties": {
        "station_id": "00572",
        "station_name": "Bodenwöhr-Altenschwand",
        "elevation": 420.0,
        "start_date": "19510101",
        "end_date": "20250905",
        "federal_state": "Bayern"
      }
    },
    {
      "type": "Feature",
      "geometry": {
        "type": "Point",
        "coordinates": [
          13.0969,
          51.0133
        ]
      },
      "properties": {
        "station_id": "00579",
        "station_name": "Rossau-Moosheim",
        "elevation": 301.0,
        "start_date": "18900401",
        "end_date": "20250904",
        "federal_state": "Sachsen"
      }
    },
    {
      "type": "Feature",
      "geometry": {
        "type": "Point",
        "coordinates": [
          7.0973,
          49.7067
        ]
      },
      "properties": {
        "station_id": "00583",
        "station_name": "Börfink-Thranenweier",
        "elevation": 585.0,
        "start_date": "19710101",
        "end_date": "20250905",
        "federal_state": "Rheinland-Pfalz"
      }
    },
    {
      "type": "Feature",
      "geometry": {
        "type": "Point",
        "coordinates": [
          12.8626,
          51.4075
        ]
      },
      "properties": {
        "station_id": "00584",
        "station_name": "Lossatal-Voigtshain",
        "elevation": 127.0,
        "start_date": "19510101",
        "end_date": "20250905",
        "federal_state": "Sachsen"
      }
    },
    {
      "type": "Feature",
      "geometry": {
        "type": "Point",
        "coordinates": [
          12.7453,
          48.8846
        ]
      },
      "properties": {
        "station_id": "00589",
        "station_name": "Bogen-Pfelling",
        "elevation": 343.0,
        "start_date": "19310101",
        "end_date": "20250905",
        "federal_state": "Bayern"
      }
    },
    {
      "type": "Feature",
      "geometry": {
        "type": "Point",
        "coordinates": [
          10.6878,
          53.3911
        ]
      },
      "properties": {
        "station_id": "00591",
        "station_name": "Boizenburg",
        "elevation": 45.0,
        "start_date": "18880604",
        "end_date": "20250905",
        "federal_state": "Mecklenburg-Vorpommern"
      }
    },
    {
      "type": "Feature",
      "geometry": {
        "type": "Point",
        "coordinates": [
          14.0363,
          52.6046
        ]
      },
      "properties": {
        "station_id": "00595",
        "station_name": "Oberbarnim-Grunow",
        "elevation": 77.0,
        "start_date": "19560101",
        "end_date": "20250905",
        "federal_state": "Brandenburg"
      }
    },
    {
      "type": "Feature",
      "geometry": {
        "type": "Point",
        "coordinates": [
          11.1908,
          54.0027
        ]
      },
      "properties": {
        "station_id": "00596",
        "station_name": "Boltenhagen",
        "elevation": 15.0,
        "start_date": "18880101",
        "end_date": "20250905",
        "federal_state": "Mecklenburg-Vorpommern"
      }
    },
    {
      "type": "Feature",
      "geometry": {
        "type": "Point",
        "coordinates": [
          7.204,
          50.7293
        ]
      },
      "properties": {
        "station_id": "00603",
        "station_name": "Königswinter-Heiderhof",
        "elevation": 147.0,
        "start_date": "19900101",
        "end_date": "20250905",
        "federal_state": "Nordrhein-Westfalen"
      }
    },
    {
      "type": "Feature",
      "geometry": {
        "type": "Point",
        "coordinates": [
          8.3348,
          47.8194
        ]
      },
      "properties": {
        "station_id": "00604",
        "station_name": "Bonndorf/Schwarzwald",
        "elevation": 875.0,
        "start_date": "20061001",
        "end_date": "20250905",
        "federal_state": "Baden-Württemberg"
      }
    },
    {
      "type": "Feature",
      "geometry": {
        "type": "Point",
        "coordinates": [
          10.1977,
          48.079
        ]
      },
      "properties": {
        "station_id": "00606",
        "station_name": "Boos",
        "elevation": 571.0,
        "start_date": "19500101",
        "end_date": "20250901",
        "federal_state": "Bayern"
      }
    },
    {
      "type": "Feature",
      "geometry": {
        "type": "Point",
        "coordinates": [
          10.3644,
          48.8474
        ]
      },
      "properties": {
        "station_id": "00608",
        "station_name": "Bopfingen-Flochberg",
        "elevation": 498.0,
        "start_date": "19310101",
        "end_date": "20250905",
        "federal_state": "Baden-Württemberg"
      }
    },
    {
      "type": "Feature",
      "geometry": {
        "type": "Point",
        "coordinates": [
          7.6365,
          50.2028
        ]
      },
      "properties": {
        "station_id": "00610",
        "station_name": "Boppard-Salzig, Bad",
        "elevation": 77.0,
        "start_date": "19310101",
        "end_date": "20250905",
        "federal_state": "Rheinland-Pfalz"
      }
    },
    {
      "type": "Feature",
      "geometry": {
        "type": "Point",
        "coordinates": [
          10.0433,
          54.1711
        ]
      },
      "properties": {
        "station_id": "00611",
        "station_name": "Bordesholm",
        "elevation": 29.0,
        "start_date": "18910501",
        "end_date": "20250905",
        "federal_state": "Schleswig-Holstein"
      }
    },
    {
      "type": "Feature",
      "geometry": {
        "type": "Point",
        "coordinates": [
          9.2324,
          51.5677
        ]
      },
      "properties": {
        "station_id": "00613",
        "station_name": "Borgentreich",
        "elevation": 206.0,
        "start_date": "19410101",
        "end_date": "20250905",
        "federal_state": "Nordrhein-Westfalen"
      }
    },
    {
      "type": "Feature",
      "geometry": {
        "type": "Point",
        "coordinates": [
          6.8863,
          51.873
        ]
      },
      "properties": {
        "station_id": "00617",
        "station_name": "Borken in Westfalen",
        "elevation": 47.0,
        "start_date": "19410101",
        "end_date": "20250905",
        "federal_state": "Nordrhein-Westfalen"
      }
    },
    {
      "type": "Feature",
      "geometry": {
        "type": "Point",
        "coordinates": [
          11.4655,
          52.3745
        ]
      },
      "properties": {
        "station_id": "00622",
        "station_name": "Westheide-Born",
        "elevation": 66.0,
        "start_date": "19460401",
        "end_date": "20250905",
        "federal_state": "Sachsen-Anhalt"
      }
    },
    {
      "type": "Feature",
      "geometry": {
        "type": "Point",
        "coordinates": [
          9.9465,
          51.3443
        ]
      },
      "properties": {
        "station_id": "00624",
        "station_name": "Bornhagen",
        "elevation": 297.0,
        "start_date": "19450228",
        "end_date": "20250905",
        "federal_state": "Thüringen"
      }
    },
    {
      "type": "Feature",
      "geometry": {
        "type": "Point",
        "coordinates": [
          10.1799,
          53.8306
        ]
      },
      "properties": {
        "station_id": "00628",
        "station_name": "Borstel über Bad Oldesloe",
        "elevation": 41.0,
        "start_date": "19740101",
        "end_date": "20250905",
        "federal_state": "Schleswig-Holstein"
      }
    },
    {
      "type": "Feature",
      "geometry": {
        "type": "Point",
        "coordinates": [
          11.4059,
          52.0193
        ]
      },
      "properties": {
        "station_id": "00630",
        "station_name": "Wanzleben-Börde / Klein Germersleben",
        "elevation": 87.0,
        "start_date": "19460301",
        "end_date": "20250905",
        "federal_state": "Sachsen-Anhalt"
      }
    },
    {
      "type": "Feature",
      "geometry": {
        "type": "Point",
        "coordinates": [
          14.5668,
          51.4036
        ]
      },
      "properties": {
        "station_id": "00633",
        "station_name": "Boxberg",
        "elevation": 127.0,
        "start_date": "19870101",
        "end_date": "20250905",
        "federal_state": "Sachsen"
      }
    },
    {
      "type": "Feature",
      "geometry": {
        "type": "Point",
        "coordinates": [
          9.1738,
          51.7049
        ]
      },
      "properties": {
        "station_id": "00644",
        "station_name": "Brakel",
        "elevation": 150.0,
        "start_date": "19410101",
        "end_date": "20250905",
        "federal_state": "Nordrhein-Westfalen"
      }
    },
    {
      "type": "Feature",
      "geometry": {
        "type": "Point",
        "coordinates": [
          7.9682,
          52.4083
        ]
      },
      "properties": {
        "station_id": "00645",
        "station_name": "Bramsche",
        "elevation": 75.0,
        "start_date": "19310101",
        "end_date": "20250905",
        "federal_state": "Niedersachsen"
      }
    },
    {
      "type": "Feature",
      "geometry": {
        "type": "Point",
        "coordinates": [
          11.9125,
          49.9589
        ]
      },
      "properties": {
        "station_id": "00647",
        "station_name": "Brand/Oberpfalz",
        "elevation": 592.0,
        "start_date": "18990101",
        "end_date": "20250905",
        "federal_state": "Bayern"
      }
    },
    {
      "type": "Feature",
      "geometry": {
        "type": "Point",
        "coordinates": [
          12.1092,
          47.7241
        ]
      },
      "properties": {
        "station_id": "00653",
        "station_name": "Brannenburg-Degerndorf",
        "elevation": 483.0,
        "start_date": "19310101",
        "end_date": "20250905",
        "federal_state": "Bayern"
      }
    },
    {
      "type": "Feature",
      "geometry": {
        "type": "Point",
        "coordinates": [
          8.3978,
          50.5228
        ]
      },
      "properties": {
        "station_id": "00654",
        "station_name": "Braunfels",
        "elevation": 230.0,
        "start_date": "19310101",
        "end_date": "20250904",
        "federal_state": "Hessen"
      }
    },
    {
      "type": "Feature",
      "geometry": {
        "type": "Point",
        "coordinates": [
          10.6021,
          51.7234
        ]
      },
      "properties": {
        "station_id": "00656",
        "station_name": "Braunlage",
        "elevation": 607.0,
        "start_date": "19310101",
        "end_date": "20250905",
        "federal_state": "Niedersachsen"
      }
    },
    {
      "type": "Feature",
      "geometry": {
        "type": "Point",
        "coordinates": [
          10.4464,
          52.2915
        ]
      },
      "properties": {
        "station_id": "00662",
        "station_name": "Braunschweig",
        "elevation": 81.0,
        "start_date": "19610101",
        "end_date": "20250905",
        "federal_state": "Niedersachsen"
      }
    },
    {
      "type": "Feature",
      "geometry": {
        "type": "Point",
        "coordinates": [
          7.6165,
          52.9556
        ]
      },
      "properties": {
        "station_id": "00668",
        "station_name": "Breddenberg",
        "elevation": 15.0,
        "start_date": "19510101",
        "end_date": "20250905",
        "federal_state": "Niedersachsen"
      }
    },
    {
      "type": "Feature",
      "geometry": {
        "type": "Point",
        "coordinates": [
          11.7954,
          53.001
        ]
      },
      "properties": {
        "station_id": "00672",
        "station_name": "Breese",
        "elevation": 22.0,
        "start_date": "19770101",
        "end_date": "20250905",
        "federal_state": "Brandenburg"
      }
    },
    {
      "type": "Feature",
      "geometry": {
        "type": "Point",
        "coordinates": [
          10.3649,
          48.1266
        ]
      },
      "properties": {
        "station_id": "00677",
        "station_name": "Breitenbrunn-Fürbuch",
        "elevation": 610.0,
        "start_date": "20020722",
        "end_date": "20250905",
        "federal_state": "Bayern"
      }
    },
    {
      "type": "Feature",
      "geometry": {
        "type": "Point",
        "coordinates": [
          8.0761,
          47.9385
        ]
      },
      "properties": {
        "station_id": "00684",
        "station_name": "Breitnau",
        "elevation": 1000.0,
        "start_date": "19120101",
        "end_date": "20250905",
        "federal_state": "Baden-Württemberg"
      }
    },
    {
      "type": "Feature",
      "geometry": {
        "type": "Point",
        "coordinates": [
          8.827,
          53.0958
        ]
      },
      "properties": {
        "station_id": "00690",
        "station_name": "Bremen (Bürgerpark)",
        "elevation": 2.0,
        "start_date": "19410101",
        "end_date": "20250905",
        "federal_state": "Bremen"
      }
    },
    {
      "type": "Feature",
      "geometry": {
        "type": "Point",
        "coordinates": [
          8.7981,
          53.0451
        ]
      },
      "properties": {
        "station_id": "00691",
        "station_name": "Bremen",
        "elevation": 4.0,
        "start_date": "18900101",
        "end_date": "20250905",
        "federal_state": "Bremen"
      }
    },
    {
      "type": "Feature",
      "geometry": {
        "type": "Point",
        "coordinates": [
          8.5761,
          53.5332
        ]
      },
      "properties": {
        "station_id": "00701",
        "station_name": "Bremerhaven",
        "elevation": 7.0,
        "start_date": "19490101",
        "end_date": "20250905",
        "federal_state": "Bremen"
      }
    },
    {
      "type": "Feature",
      "geometry": {
        "type": "Point",
        "coordinates": [
          9.139,
          53.4451
        ]
      },
      "properties": {
        "station_id": "00704",
        "station_name": "Bremervörde",
        "elevation": 11.0,
        "start_date": "19980101",
        "end_date": "20250905",
        "federal_state": "Niedersachsen"
      }
    },
    {
      "type": "Feature",
      "geometry": {
        "type": "Point",
        "coordinates": [
          13.1426,
          49.1333
        ]
      },
      "properties": {
        "station_id": "00708",
        "station_name": "Brennes",
        "elevation": 1035.0,
        "start_date": "19610101",
        "end_date": "20250905",
        "federal_state": "Bayern"
      }
    },
    {
      "type": "Feature",
      "geometry": {
        "type": "Point",
        "coordinates": [
          8.699,
          49.0249
        ]
      },
      "properties": {
        "station_id": "00710",
        "station_name": "Bretten",
        "elevation": 182.0,
        "start_date": "19831101",
        "end_date": "20250905",
        "federal_state": "Baden-Württemberg"
      }
    },
    {
      "type": "Feature",
      "geometry": {
        "type": "Point",
        "coordinates": [
          14.2474,
          52.3653
        ]
      },
      "properties": {
        "station_id": "00714",
        "station_name": "Neu Madlitz",
        "elevation": 46.0,
        "start_date": "19890101",
        "end_date": "20250905",
        "federal_state": "Brandenburg"
      }
    },
    {
      "type": "Feature",
      "geometry": {
        "type": "Point",
        "coordinates": [
          12.4362,
          51.5171
        ]
      },
      "properties": {
        "station_id": "00721",
        "station_name": "Schönwölkau-Brinnis",
        "elevation": 101.0,
        "start_date": "19300501",
        "end_date": "20250905",
        "federal_state": "Sachsen"
      }
    },
    {
      "type": "Feature",
      "geometry": {
        "type": "Point",
        "coordinates": [
          10.6183,
          51.7986
        ]
      },
      "properties": {
        "station_id": "00722",
        "station_name": "Brocken",
        "elevation": 1135.0,
        "start_date": "18960101",
        "end_date": "20250905",
        "federal_state": "Sachsen-Anhalt"
      }
    },
    {
      "type": "Feature",
      "geometry": {
        "type": "Point",
        "coordinates": [
          7.24,
          50.1841
        ]
      },
      "properties": {
        "station_id": "00723",
        "station_name": "Kail",
        "elevation": 290.0,
        "start_date": "19710101",
        "end_date": "20250905",
        "federal_state": "Rheinland-Pfalz"
      }
    },
    {
      "type": "Feature",
      "geometry": {
        "type": "Point",
        "coordinates": [
          8.6372,
          49.1127
        ]
      },
      "properties": {
        "station_id": "00731",
        "station_name": "Bruchsal-Heidelsheim",
        "elevation": 130.0,
        "start_date": "19410101",
        "end_date": "20250905",
        "federal_state": "Baden-Württemberg"
      }
    },
    {
      "type": "Feature",
      "geometry": {
        "type": "Point",
        "coordinates": [
          7.2278,
          49.7985
        ]
      },
      "properties": {
        "station_id": "00732",
        "station_name": "Bruchweiler, Kr. Birkenfeld",
        "elevation": 545.0,
        "start_date": "20071101",
        "end_date": "20250905",
        "federal_state": "Rheinland-Pfalz"
      }
    },
    {
      "type": "Feature",
      "geometry": {
        "type": "Point",
        "coordinates": [
          11.9871,
          48.5638
        ]
      },
      "properties": {
        "station_id": "00734",
        "station_name": "Bruckberg/Niederbayern-Pörndorf",
        "elevation": 498.0,
        "start_date": "19410101",
        "end_date": "20250905",
        "federal_state": "Bayern"
      }
    },
    {
      "type": "Feature",
      "geometry": {
        "type": "Point",
        "coordinates": [
          12.7333,
          52.1692
        ]
      },
      "properties": {
        "station_id": "00735",
        "station_name": "Brück-Gömnigk",
        "elevation": 53.0,
        "start_date": "18900101",
        "end_date": "20250905",
        "federal_state": "Brandenburg"
      }
    },
    {
      "type": "Feature",
      "geometry": {
        "type": "Point",
        "coordinates": [
          11.7093,
          53.7426
        ]
      },
      "properties": {
        "station_id": "00741",
        "station_name": "Brüel",
        "elevation": 27.0,
        "start_date": "18880501",
        "end_date": "20250905",
        "federal_state": "Mecklenburg-Vorpommern"
      }
    },
    {
      "type": "Feature",
      "geometry": {
        "type": "Point",
        "coordinates": [
          12.0982,
          47.6446
        ]
      },
      "properties": {
        "station_id": "00745",
        "station_name": "Brünnsteinhaus",
        "elevation": 1345.0,
        "start_date": "19710101",
        "end_date": "20250903",
        "federal_state": "Bayern"
      }
    },
    {
      "type": "Feature",
      "geometry": {
        "type": "Point",
        "coordinates": [
          9.1417,
          53.9196
        ]
      },
      "properties": {
        "station_id": "00747",
        "station_name": "Brunsbüttel",
        "elevation": 1.0,
        "start_date": "19310101",
        "end_date": "20250904",
        "federal_state": "Schleswig-Holstein"
      }
    },
    {
      "type": "Feature",
      "geometry": {
        "type": "Point",
        "coordinates": [
          10.2777,
          49.3273
        ]
      },
      "properties": {
        "station_id": "00752",
        "station_name": "Buch am Wald-Schönbronn",
        "elevation": 463.0,
        "start_date": "19960701",
        "end_date": "20250905",
        "federal_state": "Bayern"
      }
    },
    {
      "type": "Feature",
      "geometry": {
        "type": "Point",
        "coordinates": [
          11.5022,
          50.87
        ]
      },
      "properties": {
        "station_id": "00753",
        "station_name": "Bucha",
        "elevation": 305.0,
        "start_date": "19450401",
        "end_date": "20250905",
        "federal_state": "Thüringen"
      }
    },
    {
      "type": "Feature",
      "geometry": {
        "type": "Point",
        "coordinates": [
          9.3213,
          49.5182
        ]
      },
      "properties": {
        "station_id": "00755",
        "station_name": "Buchen, Kr. Neckar-Odenwald",
        "elevation": 340.0,
        "start_date": "19350101",
        "end_date": "20250905",
        "federal_state": "Baden-Württemberg"
      }
    },
    {
      "type": "Feature",
      "geometry": {
        "type": "Point",
        "coordinates": [
          10.2919,
          51.0746
        ]
      },
      "properties": {
        "station_id": "00756",
        "station_name": "Mihla-Buchenau",
        "elevation": 200.0,
        "start_date": "19910101",
        "end_date": "20250905",
        "federal_state": "Thüringen"
      }
    },
    {
      "type": "Feature",
      "geometry": {
        "type": "Point",
        "coordinates": [
          7.9983,
          47.9625
        ]
      },
      "properties": {
        "station_id": "00757",
        "station_name": "Buchenbach",
        "elevation": 445.0,
        "start_date": "19901001",
        "end_date": "20250905",
        "federal_state": "Baden-Württemberg"
      }
    },
    {
      "type": "Feature",
      "geometry": {
        "type": "Point",
        "coordinates": [
          10.1311,
          47.7083
        ]
      },
      "properties": {
        "station_id": "00759",
        "station_name": "Buchenberg-Kreuzthal",
        "elevation": 845.0,
        "start_date": "19610101",
        "end_date": "20250905",
        "federal_state": "Bayern"
      }
    },
    {
      "type": "Feature",
      "geometry": {
        "type": "Point",
        "coordinates": [
          9.9435,
          53.3629
        ]
      },
      "properties": {
        "station_id": "00760",
        "station_name": "Rosengarten-Klecken",
        "elevation": 83.0,
        "start_date": "19760601",
        "end_date": "20250905",
        "federal_state": "Niedersachsen"
      }
    },
    {
      "type": "Feature",
      "geometry": {
        "type": "Point",
        "coordinates": [
          9.089,
          52.2817
        ]
      },
      "properties": {
        "station_id": "00769",
        "station_name": "Bückeburg",
        "elevation": 68.0,
        "start_date": "19780101",
        "end_date": "20250905",
        "federal_state": "Niedersachsen"
      }
    },
    {
      "type": "Feature",
      "geometry": {
        "type": "Point",
        "coordinates": [
          9.9154,
          49.0025
        ]
      },
      "properties": {
        "station_id": "00774",
        "station_name": "Bühlerzell",
        "elevation": 388.0,
        "start_date": "19410101",
        "end_date": "20250905",
        "federal_state": "Baden-Württemberg"
      }
    },
    {
      "type": "Feature",
      "geometry": {
        "type": "Point",
        "coordinates": [
          10.6327,
          51.9997
        ]
      },
      "properties": {
        "station_id": "00775",
        "station_name": "Osterwieck-Rimbeck",
        "elevation": 100.0,
        "start_date": "19470101",
        "end_date": "20250905",
        "federal_state": "Sachsen-Anhalt"
      }
    },
    {
      "type": "Feature",
      "geometry": {
        "type": "Point",
        "coordinates": [
          9.8834,
          49.6063
        ]
      },
      "properties": {
        "station_id": "00789",
        "station_name": "Bütthard",
        "elevation": 263.0,
        "start_date": "19410101",
        "end_date": "20250905",
        "federal_state": "Bayern"
      }
    },
    {
      "type": "Feature",
      "geometry": {
        "type": "Point",
        "coordinates": [
          8.937,
          54.6328
        ]
      },
      "properties": {
        "station_id": "00791",
        "station_name": "Bordelum",
        "elevation": 5.0,
        "start_date": "19510101",
        "end_date": "20250905",
        "federal_state": "Schleswig-Holstein"
      }
    },
    {
      "type": "Feature",
      "geometry": {
        "type": "Point",
        "coordinates": [
          8.1257,
          50.7556
        ]
      },
      "properties": {
        "station_id": "00796",
        "station_name": "Burbach-Würgendorf",
        "elevation": 412.0,
        "start_date": "19410101",
        "end_date": "20250905",
        "federal_state": "Nordrhein-Westfalen"
      }
    },
    {
      "type": "Feature",
      "geometry": {
        "type": "Point",
        "coordinates": [
          11.8339,
          52.3241
        ]
      },
      "properties": {
        "station_id": "00797",
        "station_name": "Burg-Blumenthal",
        "elevation": 39.0,
        "start_date": "18970422",
        "end_date": "20250905",
        "federal_state": "Sachsen-Anhalt"
      }
    },
    {
      "type": "Feature",
      "geometry": {
        "type": "Point",
        "coordinates": [
          10.3241,
          49.4549
        ]
      },
      "properties": {
        "station_id": "00801",
        "station_name": "Burgbernheim",
        "elevation": 331.0,
        "start_date": "19410101",
        "end_date": "20250905",
        "federal_state": "Bayern"
      }
    },
    {
      "type": "Feature",
      "geometry": {
        "type": "Point",
        "coordinates": [
          10.7898,
          49.827
        ]
      },
      "properties": {
        "station_id": "00803",
        "station_name": "Burgebrach-Oberharnsbach",
        "elevation": 261.0,
        "start_date": "19410101",
        "end_date": "20250905",
        "federal_state": "Bayern"
      }
    },
    {
      "type": "Feature",
      "geometry": {
        "type": "Point",
        "coordinates": [
          10.6434,
          49.745
        ]
      },
      "properties": {
        "station_id": "00807",
        "station_name": "Schlüsselfeld (Kläranlage)",
        "elevation": 290.0,
        "start_date": "20070101",
        "end_date": "20250905",
        "federal_state": "Bayern"
      }
    },
    {
      "type": "Feature",
      "geometry": {
        "type": "Point",
        "coordinates": [
          12.8098,
          48.187
        ]
      },
      "properties": {
        "station_id": "00808",
        "station_name": "Mehring, Kr. Altötting-Niederholz",
        "elevation": 413.0,
        "start_date": "19410101",
        "end_date": "20250905",
        "federal_state": "Bayern"
      }
    },
    {
      "type": "Feature",
      "geometry": {
        "type": "Point",
        "coordinates": [
          12.706,
          48.1507
        ]
      },
      "properties": {
        "station_id": "00811",
        "station_name": "Burgkirchen/Alz-Höresham",
        "elevation": 450.0,
        "start_date": "19610101",
        "end_date": "20250905",
        "federal_state": "Bayern"
      }
    },
    {
      "type": "Feature",
      "geometry": {
        "type": "Point",
        "coordinates": [
          11.2322,
          50.1429
        ]
      },
      "properties": {
        "station_id": "00812",
        "station_name": "Burgkunstadt",
        "elevation": 278.0,
        "start_date": "19610101",
        "end_date": "20250905",
        "federal_state": "Bayern"
      }
    },
    {
      "type": "Feature",
      "geometry": {
        "type": "Point",
        "coordinates": [
          10.7066,
          50.1451
        ]
      },
      "properties": {
        "station_id": "00814",
        "station_name": "Pfarrweisach-Lohr (Pegel)",
        "elevation": 270.0,
        "start_date": "20060103",
        "end_date": "20250905",
        "federal_state": "Bayern"
      }
    },
    {
      "type": "Feature",
      "geometry": {
        "type": "Point",
        "coordinates": [
          11.6947,
          51.5426
        ]
      },
      "properties": {
        "station_id": "00815",
        "station_name": "Seegebiet Mansfelder Land-Dederstedt",
        "elevation": 162.0,
        "start_date": "19460601",
        "end_date": "20250905",
        "federal_state": "Sachsen-Anhalt"
      }
    },
    {
      "type": "Feature",
      "geometry": {
        "type": "Point",
        "coordinates": [
          12.8077,
          50.9139
        ]
      },
      "properties": {
        "station_id": "00816",
        "station_name": "Burgstädt",
        "elevation": 325.0,
        "start_date": "19450801",
        "end_date": "20250905",
        "federal_state": "Sachsen"
      }
    },
    {
      "type": "Feature",
      "geometry": {
        "type": "Point",
        "coordinates": [
          8.8146,
          51.0306
        ]
      },
      "properties": {
        "station_id": "00817",
        "station_name": "Burgwald-Bottendorf",
        "elevation": 296.0,
        "start_date": "19521001",
        "end_date": "20250905",
        "federal_state": "Hessen"
      }
    },
    {
      "type": "Feature",
      "geometry": {
        "type": "Point",
        "coordinates": [
          9.8792,
          52.5069
        ]
      },
      "properties": {
        "station_id": "00820",
        "station_name": "Burgwedel-Kleinburgwedel",
        "elevation": 55.0,
        "start_date": "19310101",
        "end_date": "20250905",
        "federal_state": "Niedersachsen"
      }
    },
    {
      "type": "Feature",
      "geometry": {
        "type": "Point",
        "coordinates": [
          14.2371,
          51.2065
        ]
      },
      "properties": {
        "station_id": "00822",
        "station_name": "Burkau-Kleinhänchen",
        "elevation": 205.0,
        "start_date": "18810101",
        "end_date": "20250905",
        "federal_state": "Sachsen"
      }
    },
    {
      "type": "Feature",
      "geometry": {
        "type": "Point",
        "coordinates": [
          8.3665,
          53.5802
        ]
      },
      "properties": {
        "station_id": "00827",
        "station_name": "Butjadingen-Burhave",
        "elevation": 2.0,
        "start_date": "19030403",
        "end_date": "20250905",
        "federal_state": "Niedersachsen"
      }
    },
    {
      "type": "Feature",
      "geometry": {
        "type": "Point",
        "coordinates": [
          12.6001,
          52.4927
        ]
      },
      "properties": {
        "station_id": "00831",
        "station_name": "Butzow",
        "elevation": 37.0,
        "start_date": "19780101",
        "end_date": "20250905",
        "federal_state": "Brandenburg"
      }
    },
    {
      "type": "Feature",
      "geometry": {
        "type": "Point",
        "coordinates": [
          13.4975,
          50.6951
        ]
      },
      "properties": {
        "station_id": "00833",
        "station_name": "Neuhausen/Erzgeb.-Rauschenbach",
        "elevation": 615.0,
        "start_date": "20230114",
        "end_date": "20250905",
        "federal_state": "Sachsen"
      }
    },
    {
      "type": "Feature",
      "geometry": {
        "type": "Point",
        "coordinates": [
          11.292,
          52.3923
        ]
      },
      "properties": {
        "station_id": "00836",
        "station_name": "Calvörde",
        "elevation": 62.0,
        "start_date": "19460311",
        "end_date": "20250905",
        "federal_state": "Sachsen-Anhalt"
      }
    },
    {
      "type": "Feature",
      "geometry": {
        "type": "Point",
        "coordinates": [
          8.2949,
          50.2863
        ]
      },
      "properties": {
        "station_id": "00837",
        "station_name": "Camberg, Bad",
        "elevation": 244.0,
        "start_date": "19310101",
        "end_date": "20250905",
        "federal_state": "Hessen"
      }
    },
    {
      "type": "Feature",
      "geometry": {
        "type": "Point",
        "coordinates": [
          10.9288,
          53.7575
        ]
      },
      "properties": {
        "station_id": "00839",
        "station_name": "Carlow",
        "elevation": 27.0,
        "start_date": "19740101",
        "end_date": "20250905",
        "federal_state": "Mecklenburg-Vorpommern"
      }
    },
    {
      "type": "Feature",
      "geometry": {
        "type": "Point",
        "coordinates": [
          12.6114,
          50.4313
        ]
      },
      "properties": {
        "station_id": "00840",
        "station_name": "Carlsfeld",
        "elevation": 895.0,
        "start_date": "19900401",
        "end_date": "20250905",
        "federal_state": "Sachsen"
      }
    },
    {
      "type": "Feature",
      "geometry": {
        "type": "Point",
        "coordinates": [
          13.2034,
          53.3445
        ]
      },
      "properties": {
        "station_id": "00845",
        "station_name": "Carpin-Serrahn",
        "elevation": 71.0,
        "start_date": "19510101",
        "end_date": "20250905",
        "federal_state": "Mecklenburg-Vorpommern"
      }
    },
    {
      "type": "Feature",
      "geometry": {
        "type": "Point",
        "coordinates": [
          10.0726,
          52.6146
        ]
      },
      "properties": {
        "station_id": "00848",
        "station_name": "Celle (Stadt)",
        "elevation": 38.0,
        "start_date": "19400101",
        "end_date": "20250905",
        "federal_state": "Niedersachsen"
      }
    },
    {
      "type": "Feature",
      "geometry": {
        "type": "Point",
        "coordinates": [
          10.0296,
          52.5959
        ]
      },
      "properties": {
        "station_id": "00850",
        "station_name": "Celle",
        "elevation": 39.0,
        "start_date": "19790101",
        "end_date": "20250905",
        "federal_state": "Niedersachsen"
      }
    },
    {
      "type": "Feature",
      "geometry": {
        "type": "Point",
        "coordinates": [
          12.6044,
          49.2505
        ]
      },
      "properties": {
        "station_id": "00851",
        "station_name": "Pemfling-Pitzling",
        "elevation": 391.0,
        "start_date": "19310101",
        "end_date": "20250905",
        "federal_state": "Bayern"
      }
    },
    {
      "type": "Feature",
      "geometry": {
        "type": "Point",
        "coordinates": [
          12.872,
          50.7913
        ]
      },
      "properties": {
        "station_id": "00853",
        "station_name": "Chemnitz",
        "elevation": 416.0,
        "start_date": "19350101",
        "end_date": "20250904",
        "federal_state": "Sachsen"
      }
    },
    {
      "type": "Feature",
      "geometry": {
        "type": "Point",
        "coordinates": [
          12.5404,
          47.8843
        ]
      },
      "properties": {
        "station_id": "00856",
        "station_name": "Chieming",
        "elevation": 551.0,
        "start_date": "20030201",
        "end_date": "20250905",
        "federal_state": "Bayern"
      }
    },
    {
      "type": "Feature",
      "geometry": {
        "type": "Point",
        "coordinates": [
          12.395,
          47.8665
        ]
      },
      "properties": {
        "station_id": "00857",
        "station_name": "Chiemsee-Herrenchiemsee",
        "elevation": 535.0,
        "start_date": "19310101",
        "end_date": "20250905",
        "federal_state": "Bayern"
      }
    },
    {
      "type": "Feature",
      "geometry": {
        "type": "Point",
        "coordinates": [
          10.0163,
          52.2731
        ]
      },
      "properties": {
        "station_id": "00860",
        "station_name": "Algermissen-Groß Lobke",
        "elevation": 80.0,
        "start_date": "19310101",
        "end_date": "20250905",
        "federal_state": "Niedersachsen"
      }
    },
    {
      "type": "Feature",
      "geometry": {
        "type": "Point",
        "coordinates": [
          10.9679,
          50.3066
        ]
      },
      "properties": {
        "station_id": "00867",
        "station_name": "Lautertal-Oberlauter",
        "elevation": 344.0,
        "start_date": "19470101",
        "end_date": "20250905",
        "federal_state": "Bayern"
      }
    },
    {
      "type": "Feature",
      "geometry": {
        "type": "Point",
        "coordinates": [
          13.4293,
          53.5231
        ]
      },
      "properties": {
        "station_id": "00870",
        "station_name": "Cölpin",
        "elevation": 79.0,
        "start_date": "19480301",
        "end_date": "20250905",
        "federal_state": "Mecklenburg-Vorpommern"
      }
    },
    {
      "type": "Feature",
      "geometry": {
        "type": "Point",
        "coordinates": [
          7.1585,
          51.9618
        ]
      },
      "properties": {
        "station_id": "00871",
        "station_name": "Coesfeld",
        "elevation": 87.0,
        "start_date": "19410101",
        "end_date": "20250905",
        "federal_state": "Nordrhein-Westfalen"
      }
    },
    {
      "type": "Feature",
      "geometry": {
        "type": "Point",
        "coordinates": [
          11.6733,
          52.2994
        ]
      },
      "properties": {
        "station_id": "00874",
        "station_name": "Zielitz",
        "elevation": 52.0,
        "start_date": "20050801",
        "end_date": "20250905",
        "federal_state": "Sachsen-Anhalt"
      }
    },
    {
      "type": "Feature",
      "geometry": {
        "type": "Point",
        "coordinates": [
          14.3168,
          51.7759
        ]
      },
      "properties": {
        "station_id": "00880",
        "station_name": "Cottbus",
        "elevation": 69.0,
        "start_date": "18870101",
        "end_date": "20250905",
        "federal_state": "Brandenburg"
      }
    },
    {
      "type": "Feature",
      "geometry": {
        "type": "Point",
        "coordinates": [
          10.786,
          50.7813
        ]
      },
      "properties": {
        "station_id": "00882",
        "station_name": "Ohrdruf-Crawinkel",
        "elevation": 471.0,
        "start_date": "19470201",
        "end_date": "20250905",
        "federal_state": "Thüringen"
      }
    },
    {
      "type": "Feature",
      "geometry": {
        "type": "Point",
        "coordinates": [
          11.616,
          49.8449
        ]
      },
      "properties": {
        "station_id": "00885",
        "station_name": "Creußen-Bühl",
        "elevation": 450.0,
        "start_date": "19310101",
        "end_date": "20250903",
        "federal_state": "Bayern"
      }
    },
    {
      "type": "Feature",
      "geometry": {
        "type": "Point",
        "coordinates": [
          8.7058,
          53.8712
        ]
      },
      "properties": {
        "station_id": "00891",
        "station_name": "Cuxhaven",
        "elevation": 5.0,
        "start_date": "19460101",
        "end_date": "20250905",
        "federal_state": "Niedersachsen"
      }
    },
    {
      "type": "Feature",
      "geometry": {
        "type": "Point",
        "coordinates": [
          10.8619,
          51.0778
        ]
      },
      "properties": {
        "station_id": "00896",
        "station_name": "Dachwig",
        "elevation": 170.0,
        "start_date": "19490701",
        "end_date": "20250905",
        "federal_state": "Thüringen"
      }
    },
    {
      "type": "Feature",
      "geometry": {
        "type": "Point",
        "coordinates": [
          6.5615,
          50.4115
        ]
      },