{
  "type": "FeatureCollection",
  "features": [
    {
      "type": "Feature",
      "geometry": {
        "type": "Point",
        "coordinates": [
          8.8493,
          47.8413
        ]
      },
      "properties": {
        "station_id": "00001",
        "station_name": "Aach",
        "elevation": 478.0,
        "start_date": "19120101",
        "end_date": "19860630",
        "federal_state": "Baden-Württemberg"
      }
    },
    {
      "type": "Feature",
      "geometry": {
        "type": "Point",
        "coordinates": [
          6.0996,
          50.8066
        ]
      },
      "properties": {
        "station_id": "00002",
        "station_name": "Aachen (Kläranlage)",
        "elevation": 138.0,
        "start_date": "19510101",
        "end_date": "20061231",
        "federal_state": "Nordrhein-Westfalen"
      }
    },
    {
      "type": "Feature",
      "geometry": {
        "type": "Point",
        "coordinates": [
          6.0941,
          50.7827
        ]
      },
      "properties": {
        "station_id": "00003",
        "station_name": "Aachen",
        "elevation": 202.0,
        "start_date": "18910101",
        "end_date": "20110331",
        "federal_state": "Nordrhein-Westfalen"
      }
    },
    {
      "type": "Feature",
      "geometry": {
        "type": "Point",
        "coordinates": [
          6.1207,
          50.7683
        ]
      },
      "properties": {
        "station_id": "00004",
        "station_name": "Aachen-Brand",
        "elevation": 243.0,
        "start_date": "19510101",
        "end_date": "19791031",
        "federal_state": "Nordrhein-Westfalen"
      }
    },
    {
      "type": "Feature",
      "geometry": {
        "type": "Point",
        "coordinates": [
          10.0598,
          48.8361
        ]
      },
      "properties": {
        "station_id": "00006",
        "station_name": "Aalen-Unterrombach",
        "elevation": 455.0,
        "start_date": "19821101",
        "end_date": "20250903",
        "federal_state": "Baden-Württemberg"
      }
    },
    {
      "type": "Feature",
      "geometry": {
        "type": "Point",
        "coordinates": [
          10.1285,
          48.814
        ]
      },
      "properties": {
        "station_id": "00007",
        "station_name": "Aalen-Unterkochen",
        "elevation": 473.0,
        "start_date": "19510101",
        "end_date": "19960131",
        "federal_state": "Baden-Württemberg"
      }
    },
    {
      "type": "Feature",
      "geometry": {
        "type": "Point",
        "coordinates": [
          8.131,
          50.2546
        ]
      },
      "properties": {
        "station_id": "00008",
        "station_name": "Aarbergen-Panrod",
        "elevation": 307.0,
        "start_date": "19310101",
        "end_date": "19911231",
        "federal_state": "Hessen"
      }
    },
    {
      "type": "Feature",
      "geometry": {
        "type": "Point",
        "coordinates": [
          8.0516,
          50.2655
        ]
      },
      "properties": {
        "station_id": "00009",
        "station_name": "Aarbergen-Rückershausen",
        "elevation": 200.0,
        "start_date": "19920601",
        "end_date": "20101231",
        "federal_state": "Hessen"
      }
    },
    {
      "type": "Feature",
      "geometry": {
        "type": "Point",
        "coordinates": [
          12.1079,
          48.8857
        ]
      },
      "properties": {
        "station_id": "00010",
        "station_name": "Abbach,Bad-Dünzling",
        "elevation": 378.0,
        "start_date": "19610101",
        "end_date": "20050831",
        "federal_state": "Bayern"
      }
    },
    {
      "type": "Feature",
      "geometry": {
        "type": "Point",
        "coordinates": [
          10.186,
          52.3814
        ]
      },
      "properties": {
        "station_id": "00012",
        "station_name": "Abbensen",
        "elevation": 61.0,
        "start_date": "19410101",
        "end_date": "20061231",
        "federal_state": "Niedersachsen"
      }
    },
    {
      "type": "Feature",
      "geometry": {
        "type": "Point",
        "coordinates": [
          11.2892,
          51.6154
        ]
      },
      "properties": {
        "station_id": "00013",
        "station_name": "Abberode",
        "elevation": 300.0,
        "start_date": "19910101",
        "end_date": "20061231",
        "federal_state": "Sachsen-Anhalt"
      }
    },
    {
      "type": "Feature",
      "geometry": {
        "type": "Point",
        "coordinates": [
          7.5,
          53.5333
        ]
      },
      "properties": {
        "station_id": "00014",
        "station_name": "Abelitzmoor",
        "elevation": 9.0,
        "start_date": "19510101",
        "end_date": "19601230",
        "federal_state": "Niedersachsen"
      }
    },
    {
      "type": "Feature",
      "geometry": {
        "type": "Point",
        "coordinates": [
          10.9667,
          49.2346
        ]
      },
      "properties": {
        "station_id": "00015",
        "station_name": "Abenberg",
        "elevation": 392.0,
        "start_date": "19510101",
        "end_date": "20250101",
        "federal_state": "Bayern"
      }
    },
    {
      "type": "Feature",
      "geometry": {
        "type": "Point",
        "coordinates": [
          10.8845,
          49.2193
        ]
      },
      "properties": {
        "station_id": "00016",
        "station_name": "Abenberg-Wassermungenau",
        "elevation": 370.0,
        "start_date": "19410101",
        "end_date": "19991231",
        "federal_state": "Bayern"
      }
    },
    {
      "type": "Feature",
      "geometry": {
        "type": "Point",
        "coordinates": [
          11.8194,
          48.8421
        ]
      },
      "properties": {
        "station_id": "00017",
        "station_name": "Abensberg-Sandharlanden",
        "elevation": 380.0,
        "start_date": "19510101",
        "end_date": "20091031",
        "federal_state": "Bayern"
      }
    },
    {
      "type": "Feature",
      "geometry": {
        "type": "Point",
        "coordinates": [
          7.0833,
          49.65
        ]
      },
      "properties": {
        "station_id": "00018",
        "station_name": "Abentheuerhütte",
        "elevation": 420.0,
        "start_date": "19310101",
        "end_date": "19651230",
        "federal_state": "Rheinland-Pfalz"
      }
    },
    {
      "type": "Feature",
      "geometry": {
        "type": "Point",
        "coordinates": [
          9.971,
          48.8795
        ]
      },
      "properties": {
        "station_id": "00019",
        "station_name": "Abtsgmünd-Neubronn",
        "elevation": 471.0,
        "start_date": "19510101",
        "end_date": "20250903",
        "federal_state": "Baden-Württemberg"
      }
    },
    {
      "type": "Feature",
      "geometry": {
        "type": "Point",
        "coordinates": [
          9.9129,
          48.9219
        ]
      },
      "properties": {
        "station_id": "00020",
        "station_name": "Abtsgmünd-Untergröningen",
        "elevation": 432.0,
        "start_date": "19410101",
        "end_date": "20250903",
        "federal_state": "Baden-Württemberg"
      }
    },
    {
      "type": "Feature",
      "geometry": {
        "type": "Point",
        "coordinates": [
          9.6981,
          47.6104
        ]
      },
      "properties": {
        "station_id": "00021",
        "station_name": "Achberg-Doberatsweiler",
        "elevation": 498.0,
        "start_date": "18921101",
        "end_date": "20250903",
        "federal_state": "Baden-Württemberg"
      }
    },
    {
      "type": "Feature",
      "geometry": {
        "type": "Point",
        "coordinates": [
          8.0466,
          48.6318
        ]
      },
      "properties": {
        "station_id": "00022",
        "station_name": "Achern-Fautenbach",
        "elevation": 138.0,
        "start_date": "19510101",
        "end_date": "20250903",
        "federal_state": "Baden-Württemberg"
      }
    },
    {
      "type": "Feature",
      "geometry": {
        "type": "Point",
        "coordinates": [
          9.0232,
          53.0311
        ]
      },
      "properties": {
        "station_id": "00023",
        "station_name": "Achim-Embsen",
        "elevation": 8.0,
        "start_date": "18910501",
        "end_date": "20250903",
        "federal_state": "Niedersachsen"
      }
    },
    {
      "type": "Feature",
      "geometry": {
        "type": "Point",
        "coordinates": [
          12.7833,
          47.8333
        ]
      },
      "properties": {
        "station_id": "00024",
        "station_name": "Achthal",
        "elevation": 582.0,
        "start_date": "19310101",
        "end_date": "19681230",
        "federal_state": "Bayern"
      }
    },
    {
      "type": "Feature",
      "geometry": {
        "type": "Point",
        "coordinates": [
          9.6,
          48.7667
        ]
      },
      "properties": {
        "station_id": "00025",
        "station_name": "Adelberg",
        "elevation": 474.0,
        "start_date": "19510101",
        "end_date": "19751231",
        "federal_state": "Baden-Württemberg"
      }
    },
    {
      "type": "Feature",
      "geometry": {
        "type": "Point",
        "coordinates": [
          10.0544,
          52.5503
        ]
      },
      "properties": {
        "station_id": "00026",
        "station_name": "Adelheidsdorf",
        "elevation": 41.0,
        "start_date": "19780101",
        "end_date": "20061231",
        "federal_state": "Niedersachsen"
      }
    },
    {
      "type": "Feature",
      "geometry": {
        "type": "Point",
        "coordinates": [
          12.6167,
          47.8167
        ]
      },
      "properties": {
        "station_id": "00027",
        "station_name": "Adelholzen, Bad",
        "elevation": 657.0,
        "start_date": "19310101",
        "end_date": "19820630",
        "federal_state": "Bayern"
      }
    },
    {
      "type": "Feature",
      "geometry": {
        "type": "Point",
        "coordinates": [
          10.006,
          48.954
        ]
      },
      "properties": {
        "station_id": "00028",
        "station_name": "Adelmannsfelden",
        "elevation": 470.0,
        "start_date": "19410101",
        "end_date": "20021231",
        "federal_state": "Baden-Württemberg"
      }
    },
    {
      "type": "Feature",
      "geometry": {
        "type": "Point",
        "coordinates": [
          10.9101,
          49.7175
        ]
      },
      "properties": {
        "station_id": "00029",
        "station_name": "Adelsdorf (Kläranlage)",
        "elevation": 260.0,
        "start_date": "20060101",
        "end_date": "20250903",
        "federal_state": "Bayern"
      }
    },
    {
      "type": "Feature",
      "geometry": {
        "type": "Point",
        "coordinates": [
          9.3914,
          49.4064
        ]
      },
      "properties": {
        "station_id": "00030",
        "station_name": "Adelsheim",
        "elevation": 260.0,
        "start_date": "19310101",
        "end_date": "20061031",
        "federal_state": "Baden-Württemberg"
      }
    },
    {
      "type": "Feature",
      "geometry": {
        "type": "Point",
        "coordinates": [
          10.4333,
          53.2833
        ]
      },
      "properties": {
        "station_id": "00031",
        "station_name": "Adendorf",
        "elevation": 25.0,
        "start_date": "19510101",
        "end_date": "19901231",
        "federal_state": "Niedersachsen"
      }
    },
    {
      "type": "Feature",
      "geometry": {
        "type": "Point",
        "coordinates": [
          9.9333,
          52.0
        ]
      },
      "properties": {
        "station_id": "00032",
        "station_name": "Adenstedt",
        "elevation": 194.0,
        "start_date": "19310101",
        "end_date": "19900630",
        "federal_state": "Niedersachsen"
      }
    },
    {
      "type": "Feature",
      "geometry": {
        "type": "Point",
        "coordinates": [
          10.9994,
          52.0286
        ]
      },
      "properties": {
        "station_id": "00033",
        "station_name": "Aderstedt",
        "elevation": 93.0,
        "start_date": "19510101",
        "end_date": "20021231",
        "federal_state": "Sachsen-Anhalt"
      }
    },
    {
      "type": "Feature",
      "geometry": {
        "type": "Point",
        "coordinates": [
          9.45,
          49.1667
        ]
      },
      "properties": {
        "station_id": "00034",
        "station_name": "Adolzfurt",
        "elevation": 220.0,
        "start_date": "19410101",
        "end_date": "19601230",
        "federal_state": "Baden-Württemberg"
      }
    },
    {
      "type": "Feature",
      "geometry": {
        "type": "Point",
        "coordinates": [
          12.2875,
          50.312
        ]
      },
      "properties": {
        "station_id": "00035",
        "station_name": "Adorf",
        "elevation": 480.0,
        "start_date": "19510101",
        "end_date": "20020630",
        "federal_state": "Sachsen"
      }
    },
    {
      "type": "Feature",
      "geometry": {
        "type": "Point",
        "coordinates": [
          9.235,
          52.0308
        ]
      },
      "properties": {
        "station_id": "00036",
        "station_name": "Aerzen-Reher",
        "elevation": 115.0,
        "start_date": "19310101",
        "end_date": "20030430",
        "federal_state": "Niedersachsen"
      }
    },
    {
      "type": "Feature",
      "geometry": {
        "type": "Point",
        "coordinates": [
          10.9795,
          48.4612
        ]
      },
      "properties": {
        "station_id": "00037",
        "station_name": "Affing",
        "elevation": 470.0,
        "start_date": "19510101",
        "end_date": "20051231",
        "federal_state": "Bayern"
      }
    },
    {
      "type": "Feature",
      "geometry": {
        "type": "Point",
        "coordinates": [
          7.0095,
          52.09
        ]
      },
      "properties": {
        "station_id": "00038",
        "station_name": "Ahaus (Wieselweg)",
        "elevation": 52.0,
        "start_date": "18910818",
        "end_date": "20061231",
        "federal_state": "Nordrhein-Westfalen"
      }
    },
    {
      "type": "Feature",
      "geometry": {
        "type": "Point",
        "coordinates": [
          9.3092,
          53.0585
        ]
      },
      "properties": {
        "station_id": "00039",
        "station_name": "Ahausen",
        "elevation": 29.0,
        "start_date": "19510101",
        "end_date": "20061231",
        "federal_state": "Niedersachsen"
      }
    },
    {
      "type": "Feature",
      "geometry": {
        "type": "Point",
        "coordinates": [
          14.1823,
          53.6674
        ]
      },
      "properties": {
        "station_id": "00040",
        "station_name": "Ahlbeck",
        "elevation": 5.0,
        "start_date": "19510101",
        "end_date": "20030630",
        "federal_state": "Mecklenburg-Vorpommern"
      }
    },
    {
      "type": "Feature",
      "geometry": {
        "type": "Point",
        "coordinates": [
          9.5665,
          52.7356
        ]
      },
      "properties": {
        "station_id": "00041",
        "station_name": "Ahlden-Grethem",
        "elevation": 26.0,
        "start_date": "19410101",
        "end_date": "20250903",
        "federal_state": "Niedersachsen"
      }
    },
    {
      "type": "Feature",
      "geometry": {
        "type": "Point",
        "coordinates": [
          7.8738,
          51.7736
        ]
      },
      "properties": {
        "station_id": "00042",
        "station_name": "Ahlen in Westfalen",
        "elevation": 70.0,
        "start_date": "19710101",
        "end_date": "20091231",
        "federal_state": "Nordrhein-Westfalen"
      }
    },
    {
      "type": "Feature",
      "geometry": {
        "type": "Point",
        "coordinates": [
          8.7833,
          53.7
        ]
      },
      "properties": {
        "station_id": "00043",
        "station_name": "Ahlen (Falkenberger Moor)",
        "elevation": 3.0,
        "start_date": "19310101",
        "end_date": "19761231",
        "federal_state": "Niedersachsen"
      }
    },
    {
      "type": "Feature",
      "geometry": {
        "type": "Point",
        "coordinates": [
          8.237,
          52.9336
        ]
      },
      "properties": {
        "station_id": "00044",
        "station_name": "Großenkneten",
        "elevation": 44.0,
        "start_date": "19710301",
        "end_date": "20250903",
        "federal_state": "Niedersachsen"
      }
    },
    {
      "type": "Feature",
      "geometry": {
        "type": "Point",
        "coordinates": [
          9.4042,
          51.374
        ]
      },
      "properties": {
        "station_id": "00045",
        "station_name": "Ahnatal-Weimar",
        "elevation": 298.0,
        "start_date": "19710101",
        "end_date": "20001231",
        "federal_state": "Hessen"
      }
    },
    {
      "type": "Feature",
      "geometry": {
        "type": "Point",
        "coordinates": [
          12.4639,
          48.945
        ]
      },
      "properties": {
        "station_id": "00046",
        "station_name": "Aholfing",
        "elevation": 325.0,
        "start_date": "20060101",
        "end_date": "20250903",
        "federal_state": "Bayern"
      }
    },
    {
      "type": "Feature",
      "geometry": {
        "type": "Point",
        "coordinates": [
          9.5439,
          49.4997
        ]
      },
      "properties": {
        "station_id": "00047",
        "station_name": "Ahorn-Eubigheim",
        "elevation": 338.0,
        "start_date": "19410101",
        "end_date": "20131130",
        "federal_state": "Baden-Württemberg"
      }
    },
    {
      "type": "Feature",
      "geometry": {
        "type": "Point",
        "coordinates": [
          11.4025,
          49.8364
        ]
      },
      "properties": {
        "station_id": "00048",
        "station_name": "Ahorntal-Kirchahorn",
        "elevation": 410.0,
        "start_date": "19780101",
        "end_date": "20051231",
        "federal_state": "Bayern"
      }
    },
    {
      "type": "Feature",
      "geometry": {
        "type": "Point",
        "coordinates": [
          10.4667,
          51.85
        ]
      },
      "properties": {
        "station_id": "00050",
        "station_name": "Ahrendsberg",
        "elevation": 549.0,
        "start_date": "19410101",
        "end_date": "19651230",
        "federal_state": "Niedersachsen"
      }
    },
    {
      "type": "Feature",
      "geometry": {
        "type": "Point",
        "coordinates": [
          10.5667,
          54.0167
        ]
      },
      "properties": {
        "station_id": "00051",
        "station_name": "Ahrensbök",
        "elevation": 60.0,
        "start_date": "19410101",
        "end_date": "19781231",
        "federal_state": "Schleswig-Holstein"
      }
    },
    {
      "type": "Feature",
      "geometry": {
        "type": "Point",
        "coordinates": [
          10.199,
          53.6623
        ]
      },
      "properties": {
        "station_id": "00052",
        "station_name": "Ahrensburg-Wulfsdorf",
        "elevation": 46.0,
        "start_date": "19730101",
        "end_date": "20011231",
        "federal_state": "Schleswig-Holstein"
      }
    },
    {
      "type": "Feature",
      "geometry": {
        "type": "Point",
        "coordinates": [
          13.5634,
          52.585
        ]
      },
      "properties": {
        "station_id": "00053",
        "station_name": "Ahrensfelde",
        "elevation": 60.0,
        "start_date": "19690101",
        "end_date": "20250903",
        "federal_state": "Brandenburg"
      }
    },
    {
      "type": "Feature",
      "geometry": {
        "type": "Point",
        "coordinates": [
          9.0667,
          54.5667
        ]
      },
      "properties": {
        "station_id": "00054",
        "station_name": "Ahrenshöft",
        "elevation": 5.0,
        "start_date": "19410101",
        "end_date": "19870331",
        "federal_state": "Schleswig-Holstein"
      }
    },
    {
      "type": "Feature",
      "geometry": {
        "type": "Point",
        "coordinates": [
          12.024,
          47.8778
        ]
      },
      "properties": {
        "station_id": "00055",
        "station_name": "Aibling, Bad-Ellmosen",
        "elevation": 508.0,
        "start_date": "19510101",
        "end_date": "20250903",
        "federal_state": "Bayern"
      }
    },
    {
      "type": "Feature",
      "geometry": {
        "type": "Point",
        "coordinates": [
          11.1333,
          48.45
        ]
      },
      "properties": {
        "station_id": "00056",
        "station_name": "Aichach",
        "elevation": 444.0,
        "start_date": "19510101",
        "end_date": "19741231",
        "federal_state": "Bayern"
      }
    },
    {
      "type": "Feature",
      "geometry": {
        "type": "Point",
        "coordinates": [
          11.0521,
          48.4799
        ]
      },
      "properties": {
        "station_id": "00057",
        "station_name": "Hollenbach/Bayern-Schönbach",
        "elevation": 461.0,
        "start_date": "19780101",
        "end_date": "20250903",
        "federal_state": "Bayern"
      }
    },
    {
      "type": "Feature",
      "geometry": {
        "type": "Point",
        "coordinates": [
          10.0796,
          47.8922
        ]
      },
      "properties": {
        "station_id": "00058",
        "station_name": "Aichstetten",
        "elevation": 623.0,
        "start_date": "19830701",
        "end_date": "20031231",
        "federal_state": "Baden-Württemberg"
      }
    },
    {
      "type": "Feature",
      "geometry": {
        "type": "Point",
        "coordinates": [
          11.7022,
          48.6929
        ]
      },
      "properties": {
        "station_id": "00059",
        "station_name": "Aiglsbach",
        "elevation": 405.0,
        "start_date": "19510101",
        "end_date": "20051231",
        "federal_state": "Bayern"
      }
    },
    {
      "type": "Feature",
      "geometry": {
        "type": "Point",
        "coordinates": [
          10.4591,
          48.5032
        ]
      },
      "properties": {
        "station_id": "00060",
        "station_name": "Aislingen",
        "elevation": 460.0,
        "start_date": "19780101",
        "end_date": "20010731",
        "federal_state": "Bayern"
      }
    },
    {
      "type": "Feature",
      "geometry": {
        "type": "Point",
        "coordinates": [
          12.6171,
          48.8443
        ]
      },
      "properties": {
        "station_id": "00061",
        "station_name": "Aiterhofen",
        "elevation": 339.0,
        "start_date": "19750701",
        "end_date": "19780831",
        "federal_state": "Bayern"
      }
    },
    {
      "type": "Feature",
      "geometry": {
        "type": "Point",
        "coordinates": [
          7.8569,
          47.8191
        ]
      },
      "properties": {
        "station_id": "00062",
        "station_name": "Aitern-Untermulten",
        "elevation": 1018.0,
        "start_date": "19510101",
        "end_date": "20021231",
        "federal_state": "Baden-Württemberg"
      }
    },
    {
      "type": "Feature",
      "geometry": {
        "type": "Point",
        "coordinates": [
          10.5376,
          47.8173
        ]
      },
      "properties": {
        "station_id": "00063",
        "station_name": "Aitrang",
        "elevation": 744.0,
        "start_date": "19510101",
        "end_date": "20250903",
        "federal_state": "Bayern"
      }
    },
    {
      "type": "Feature",
      "geometry": {
        "type": "Point",
        "coordinates": [
          12.0491,
          51.8488
        ]
      },
      "properties": {
        "station_id": "00064",
        "station_name": "Aken/Elbe",
        "elevation": 55.0,
        "start_date": "18900801",
        "end_date": "20250801",
        "federal_state": "Sachsen-Anhalt"
      }
    },
    {
      "type": "Feature",
      "geometry": {
        "type": "Point",
        "coordinates": [
          12.1049,
          48.1094
        ]
      },
      "properties": {
        "station_id": "00065",
        "station_name": "Albaching",
        "elevation": 513.0,
        "start_date": "19410101",
        "end_date": "20040531",
        "federal_state": "Bayern"
      }
    },
    {
      "type": "Feature",
      "geometry": {
        "type": "Point",
        "coordinates": [
          9.2833,
          54.15
        ]
      },
      "properties": {
        "station_id": "00066",
        "station_name": "Albersdorf",
        "elevation": 40.0,
        "start_date": "19290401",
        "end_date": "20050430",
        "federal_state": "Schleswig-Holstein"
      }
    },
    {
      "type": "Feature",
      "geometry": {
        "type": "Point",
        "coordinates": [
          12.3,
          49.6667
        ]
      },
      "properties": {
        "station_id": "00067",
        "station_name": "Albersrieth",
        "elevation": 511.0,
        "start_date": "19510101",
        "end_date": "19701230",
        "federal_state": "Bayern"
      }
    },
    {
      "type": "Feature",
      "geometry": {
        "type": "Point",
        "coordinates": [
          12.5692,
          51.3015
        ]
      },
      "properties": {
        "station_id": "00068",
        "station_name": "Albrechtshain",
        "elevation": 128.0,
        "start_date": "19720101",
        "end_date": "19971231",
        "federal_state": "Sachsen"
      }
    },
    {
      "type": "Feature",
      "geometry": {
        "type": "Point",
        "coordinates": [
          8.9329,
          48.2413
        ]
      },
      "properties": {
        "station_id": "00069",
        "station_name": "Albstadt-Burgfelden",
        "elevation": 911.0,
        "start_date": "19410101",
        "end_date": "20031231",
        "federal_state": "Baden-Württemberg"
      }
    },
    {
      "type": "Feature",
      "geometry": {
        "type": "Point",
        "coordinates": [
          9.0371,
          48.2052
        ]
      },
      "properties": {
        "station_id": "00070",
        "station_name": "Albstadt-Ebingen",
        "elevation": 712.0,
        "start_date": "19730601",
        "end_date": "19860930",
        "federal_state": "Baden-Württemberg"
      }
    },
    {
      "type": "Feature",
      "geometry": {
        "type": "Point",
        "coordinates": [
          8.9784,
          48.2156
        ]
      },
      "properties": {
        "station_id": "00071",
        "station_name": "Albstadt-Badkap",
        "elevation": 759.0,
        "start_date": "19861101",
        "end_date": "20191231",
        "federal_state": "Baden-Württemberg"
      }
    },
    {
      "type": "Feature",
      "geometry": {
        "type": "Point",
        "coordinates": [
          9.0001,
          48.2766
        ]
      },
      "properties": {
        "station_id": "00072",
        "station_name": "Albstadt-Onstmettingen",
        "elevation": 794.0,
        "start_date": "19781001",
        "end_date": "19950531",
        "federal_state": "Baden-Württemberg"
      }
    },
    {
      "type": "Feature",
      "geometry": {
        "type": "Point",
        "coordinates": [
          13.062,
          48.6183
        ]
      },
      "properties": {
        "station_id": "00073",
        "station_name": "Aldersbach-Kramersepp",
        "elevation": 374.0,
        "start_date": "19310101",
        "end_date": "20250903",
        "federal_state": "Bayern"
      }
    },
    {
      "type": "Feature",
      "geometry": {
        "type": "Point",
        "coordinates": [
          10.8667,
          49.05
        ]
      },
      "properties": {
        "station_id": "00074",
        "station_name": "Alesheim",
        "elevation": 428.0,
        "start_date": "19310101",
        "end_date": "19681230",
        "federal_state": "Bayern"
      }
    },
    {
      "type": "Feature",
      "geometry": {
        "type": "Point",
        "coordinates": [
          9.7267,
          48.8412
        ]
      },
      "properties": {
        "station_id": "00075",
        "station_name": "Alfdorf",
        "elevation": 486.0,
        "start_date": "19510101",
        "end_date": "19861231",
        "federal_state": "Baden-Württemberg"
      }
    },
    {
      "type": "Feature",
      "geometry": {
        "type": "Point",
        "coordinates": [
          9.6842,
          48.8354
        ]
      },
      "properties": {
        "station_id": "00076",
        "station_name": "Alfdorf-Pfahlbronn",
        "elevation": 493.0,
        "start_date": "19870101",
        "end_date": "20031231",
        "federal_state": "Baden-Württemberg"
      }
    },
    {
      "type": "Feature",
      "geometry": {
        "type": "Point",
        "coordinates": [
          9.8191,
          51.9916
        ]
      },
      "properties": {
        "station_id": "00077",
        "station_name": "Alfeld/Leine",
        "elevation": 90.0,
        "start_date": "19310101",
        "end_date": "20071031",
        "federal_state": "Niedersachsen"
      }
    },
    {
      "type": "Feature",
      "geometry": {
        "type": "Point",
        "coordinates": [
          7.9125,
          52.4853
        ]
      },
      "properties": {
        "station_id": "00078",
        "station_name": "Alfhausen",
        "elevation": 64.0,
        "start_date": "19610101",
        "end_date": "20250901",
        "federal_state": "Niedersachsen"
      }
    },
    {
      "type": "Feature",
      "geometry": {
        "type": "Point",
        "coordinates": [
          7.0155,
          50.6718
        ]
      },
      "properties": {
        "station_id": "00079",
        "station_name": "Alfter-Volmershoven",
        "elevation": 160.0,
        "start_date": "19310101",
        "end_date": "20250831",
        "federal_state": "Nordrhein-Westfalen"
      }
    },
    {
      "type": "Feature",
      "geometry": {
        "type": "Point",
        "coordinates": [
          9.6617,
          51.0518
        ]
      },
      "properties": {
        "station_id": "00080",
        "station_name": "Alheim-Heinebach",
        "elevation": 195.0,
        "start_date": "19610101",
        "end_date": "20041231",
        "federal_state": "Hessen"
      }
    },
    {
      "type": "Feature",
      "geometry": {
        "type": "Point",
        "coordinates": [
          8.6521,
          51.059
        ]
      },
      "properties": {
        "station_id": "00081",
        "station_name": "Allendorf/Eder-Osterfeld",
        "elevation": 378.0,
        "start_date": "19410101",
        "end_date": "19991231",
        "federal_state": "Hessen"
      }
    },
    {
      "type": "Feature",
      "geometry": {
        "type": "Point",
        "coordinates": [
          9.1833,
          53.0333
        ]
      },
      "properties": {
        "station_id": "00082",
        "station_name": "Allerdorf",
        "elevation": 18.0,
        "start_date": "19510101",
        "end_date": "19701230",
        "federal_state": "Niedersachsen"
      }
    },
    {
      "type": "Feature",
      "geometry": {
        "type": "Point",
        "coordinates": [
          11.1414,
          52.213
        ]
      },
      "properties": {
        "station_id": "00083",
        "station_name": "Alleringersleben",
        "elevation": 135.0,
        "start_date": "19690101",
        "end_date": "20021231",
        "federal_state": "Sachsen-Anhalt"
      }
    },
    {
      "type": "Feature",
      "geometry": {
        "type": "Point",
        "coordinates": [
          11.243,
          49.2507
        ]
      },
      "properties": {
        "station_id": "00084",
        "station_name": "Allersberg",
        "elevation": 385.0,
        "start_date": "19510101",
        "end_date": "20051231",
        "federal_state": "Bayern"
      }
    },
    {
      "type": "Feature",
      "geometry": {
        "type": "Point",
        "coordinates": [
          10.9694,
          51.6765
        ]
      },
      "properties": {
        "station_id": "00085",
        "station_name": "Allrode",
        "elevation": 458.0,
        "start_date": "19690101",
        "end_date": "20000131",
        "federal_state": "Sachsen-Anhalt"
      }
    },
    {
      "type": "Feature",
      "geometry": {
        "type": "Point",
        "coordinates": [
          11.3889,
          51.3998
        ]
      },
      "properties": {
        "station_id": "00086",
        "station_name": "Allstedt",
        "elevation": 140.0,
        "start_date": "19690101",
        "end_date": "20011231",
        "federal_state": "Sachsen-Anhalt"
      }
    },
    {
      "type": "Feature",
      "geometry": {
        "type": "Point",
        "coordinates": [
          11.0479,
          51.095
        ]
      },
      "properties": {
        "station_id": "00087",
        "station_name": "Alperstedt",
        "elevation": 158.0,
        "start_date": "19470101",
        "end_date": "20250903",
        "federal_state": "Thüringen"
      }
    },
    {
      "type": "Feature",
      "geometry": {
        "type": "Point",
        "coordinates": [
          8.3944,
          48.3226
        ]
      },
      "properties": {
        "station_id": "00088",
        "station_name": "Alpirsbach",
        "elevation": 400.0,
        "start_date": "19881201",
        "end_date": "20031231",
        "federal_state": "Baden-Württemberg"
      }
    },
    {
      "type": "Feature",
      "geometry": {
        "type": "Point",
        "coordinates": [
          7.8167,
          49.7167
        ]
      },
      "properties": {
        "station_id": "00089",
        "station_name": "Alsenz",
        "elevation": 146.0,
        "start_date": "19510101",
        "end_date": "19701230",
        "federal_state": "Rheinland-Pfalz"
      }
    },
    {
      "type": "Feature",
      "geometry": {
        "type": "Point",
        "coordinates": [
          9.345,
          50.7446
        ]
      },
      "properties": {
        "station_id": "00091",
        "station_name": "Alsfeld-Eifa",
        "elevation": 304.0,
        "start_date": "19781101",
        "end_date": "20250903",
        "federal_state": "Hessen"
      }
    },
    {
      "type": "Feature",
      "geometry": {
        "type": "Point",
        "coordinates": [
          9.4031,
          50.7638
        ]
      },
      "properties": {
        "station_id": "00092",
        "station_name": "Alsfeld-Lingelbach",
        "elevation": 395.0,
        "start_date": "19310101",
        "end_date": "19951130",
        "federal_state": "Hessen"
      }
    },
    {
      "type": "Feature",
      "geometry": {
        "type": "Point",
        "coordinates": [
          9.2542,
          50.7691
        ]
      },
      "properties": {
        "station_id": "00093",
        "station_name": "Alsfeld-Reibertenrod",
        "elevation": 269.0,
        "start_date": "19710101",
        "end_date": "19991231",
        "federal_state": "Hessen"
      }
    },
    {
      "type": "Feature",
      "geometry": {
        "type": "Point",
        "coordinates": [
          11.3133,
          53.3096
        ]
      },
      "properties": {
        "station_id": "00094",
        "station_name": "Alt Krenzlin-Krenzliner Hütte",
        "elevation": 52.0,
        "start_date": "19690101",
        "end_date": "20051231",
        "federal_state": "Mecklenburg-Vorpommern"
      }
    },
    {
      "type": "Feature",
      "geometry": {
        "type": "Point",
        "coordinates": [
          14.2317,
          52.378
        ]
      },
      "properties": {
        "station_id": "00095",
        "station_name": "Alt Madlitz",
        "elevation": 62.0,
        "start_date": "19690101",
        "end_date": "20031231",
        "federal_state": "Brandenburg"
      }
    },
    {
      "type": "Feature",
      "geometry": {
        "type": "Point",
        "coordinates": [
          12.8518,
          52.9437
        ]
      },
      "properties": {
        "station_id": "00096",
        "station_name": "Neuruppin-Alt Ruppin",
        "elevation": 50.0,
        "start_date": "19690101",
        "end_date": "20250903",
        "federal_state": "Brandenburg"
      }
    },
    {
      "type": "Feature",
      "geometry": {
        "type": "Point",
        "coordinates": [
          14.442,
          52.4275
        ]
      },
      "properties": {
        "station_id": "00097",
        "station_name": "Alt Zeschdorf",
        "elevation": 50.0,
        "start_date": "19840101",
        "end_date": "20051231",
        "federal_state": "Brandenburg"
      }
    },
    {
      "type": "Feature",
      "geometry": {
        "type": "Point",
        "coordinates": [
          8.4671,
          51.189
        ]
      },
      "properties": {
        "station_id": "00098",
        "station_name": "Altastenberg",
        "elevation": 780.0,
        "start_date": "18870214",
        "end_date": "19541231",
        "federal_state": "Nordrhein-Westfalen"
      }
    },
    {
      "type": "Feature",
      "geometry": {
        "type": "Point",
        "coordinates": [
          11.2475,
          52.0728
        ]
      },
      "properties": {
        "station_id": "00099",
        "station_name": "Altbrandsleben",
        "elevation": 185.0,
        "start_date": "19690101",
        "end_date": "20021231",
        "federal_state": "Sachsen-Anhalt"
      }
    },
    {
      "type": "Feature",
      "geometry": {
        "type": "Point",
        "coordinates": [
          14.0318,
          51.6504
        ]
      },
      "properties": {
        "station_id": "00100",
        "station_name": "Altdöbern",
        "elevation": 85.0,
        "start_date": "19520701",
        "end_date": "20051231",
        "federal_state": "Brandenburg"
      }
    },
    {
      "type": "Feature",
      "geometry": {
        "type": "Point",
        "coordinates": [
          11.3705,
          49.3864
        ]
      },
      "properties": {
        "station_id": "00101",
        "station_name": "Altdorf",
        "elevation": 423.0,
        "start_date": "19310101",
        "end_date": "20020531",
        "federal_state": "Bayern"
      }
    },
    {
      "type": "Feature",
      "geometry": {
        "type": "Point",
        "coordinates": [
          12.217,
          48.896
        ]
      },
      "properties": {
        "station_id": "00103",
        "station_name": "Hagelstadt",
        "elevation": 364.0,
        "start_date": "19780101",
        "end_date": "20250903",
        "federal_state": "Bayern"
      }
    },
    {
      "type": "Feature",
      "geometry": {
        "type": "Point",
        "coordinates": [
          7.6922,
          51.2856
        ]
      },
      "properties": {
        "station_id": "00104",
        "station_name": "Altena in Westfalen",
        "elevation": 196.0,
        "start_date": "19610101",
        "end_date": "20061231",
        "federal_state": "Nordrhein-Westfalen"
      }
    },
    {
      "type": "Feature",
      "geometry": {
        "type": "Point",
        "coordinates": [
          6.9711,
          50.4844
        ]
      },
      "properties": {
        "station_id": "00105",
        "station_name": "Ahrbrück",
        "elevation": 195.0,
        "start_date": "19410101",
        "end_date": "20250902",
        "federal_state": "Rheinland-Pfalz"
      }
    },
    {
      "type": "Feature",
      "geometry": {
        "type": "Point",
        "coordinates": [
          10.4429,
          51.7976
        ]
      },
      "properties": {
        "station_id": "00106",
        "station_name": "Altenau",
        "elevation": 500.0,
        "start_date": "19730101",
        "end_date": "19960229",
        "federal_state": "Niedersachsen"
      }
    },
    {
      "type": "Feature",
      "geometry": {
        "type": "Point",
        "coordinates": [
          10.4333,
          51.8
        ]
      },
      "properties": {
        "station_id": "00107",
        "station_name": "Altenau (A)",
        "elevation": 460.0,
        "start_date": "19310101",
        "end_date": "19810331",
        "federal_state": "Niedersachsen"
      }
    },
    {
      "type": "Feature",
      "geometry": {
        "type": "Point",
        "coordinates": [
          10.5333,
          51.8333
        ]
      },
      "properties": {
        "station_id": "00108",
        "station_name": "Altenau-Bastesiedlung",
        "elevation": 635.0,
        "start_date": "19610101",
        "end_date": "19950630",
        "federal_state": "Niedersachsen"
      }
    },
    {
      "type": "Feature",
      "geometry": {
        "type": "Point",
        "coordinates": [
          10.5379,
          51.8012
        ]
      },
      "properties": {
        "station_id": "00109",
        "station_name": "Altenau-Torfhaus/Harz",
        "elevation": 800.0,
        "start_date": "19610101",
        "end_date": "19951231",
        "federal_state": "Niedersachsen"
      }
    },
    {
      "type": "Feature",
      "geometry": {
        "type": "Point",
        "coordinates": [
          7.4877,
          52.0487
        ]
      },
      "properties": {
        "station_id": "00110",
        "station_name": "Altenberge",
        "elevation": 65.0,
        "start_date": "19310101",
        "end_date": "20250903",
        "federal_state": "Nordrhein-Westfalen"
      }
    },
    {
      "type": "Feature",
      "geometry": {
        "type": "Point",
        "coordinates": [
          10.9362,
          51.7273
        ]
      },
      "properties": {
        "station_id": "00111",
        "station_name": "Altenbrak",
        "elevation": 300.0,
        "start_date": "19690101",
        "end_date": "20061231",
        "federal_state": "Sachsen-Anhalt"
      }
    },
    {
      "type": "Feature",
      "geometry": {
        "type": "Point",
        "coordinates": [
          10.8965,
          51.739
        ]
      },
      "properties": {
        "station_id": "00112",
        "station_name": "Altenbrak/Rappbode",
        "elevation": 430.0,
        "start_date": "19690101",
        "end_date": "20041231",
        "federal_state": "Sachsen-Anhalt"
      }
    },
    {
      "type": "Feature",
      "geometry": {
        "type": "Point",
        "coordinates": [
          10.9569,
          51.7365
        ]
      },
      "properties": {
        "station_id": "00113",
        "station_name": "Altenbrak-Todtenrode",
        "elevation": 425.0,
        "start_date": "19690101",
        "end_date": "20011231",
        "federal_state": "Sachsen-Anhalt"
      }
    },
    {
      "type": "Feature",
      "geometry": {
        "type": "Point",
        "coordinates": [
          10.919,
          51.7412
        ]
      },
      "properties": {
        "station_id": "00115",
        "station_name": "Altenbrak-Wendefurth",
        "elevation": 353.0,
        "start_date": "19690101",
        "end_date": "20041231",
        "federal_state": "Sachsen-Anhalt"
      }
    },
    {
      "type": "Feature",
      "geometry": {
        "type": "Point",
        "coordinates": [
          12.4333,
          50.9833
        ]
      },
      "properties": {
        "station_id": "00116",
        "station_name": "Altenburg",
        "elevation": 213.0,
        "start_date": "18990601",
        "end_date": "19730531",
        "federal_state": "Thüringen"
      }
    },
    {
      "type": "Feature",
      "geometry": {
        "type": "Point",
        "coordinates": [
          10.7179,
          50.5605
        ]
      },
      "properties": {
        "station_id": "00117",
        "station_name": "Altendambach",
        "elevation": 520.0,
        "start_date": "19510101",
        "end_date": "20071231",
        "federal_state": "Thüringen"
      }
    },
    {
      "type": "Feature",
      "geometry": {
        "type": "Point",
        "coordinates": [
          12.2852,
          49.4053
        ]
      },
      "properties": {
        "station_id": "00118",
        "station_name": "Altendorf",
        "elevation": 388.0,
        "start_date": "19510101",
        "end_date": "20250903",
        "federal_state": "Bayern"
      }
    },
    {
      "type": "Feature",
      "geometry": {
        "type": "Point",
        "coordinates": [
          12.7514,
          54.2756
        ]
      },
      "properties": {
        "station_id": "00119",
        "station_name": "Altenhagen-Starkow",
        "elevation": 7.0,
        "start_date": "19510101",
        "end_date": "20051231",
        "federal_state": "Mecklenburg-Vorpommern"
      }
    },
    {
      "type": "Feature",
      "geometry": {
        "type": "Point",
        "coordinates": [
          13.7118,
          52.9136
        ]
      },
      "properties": {
        "station_id": "00120",
        "station_name": "Altenhof",
        "elevation": 50.0,
        "start_date": "19810101",
        "end_date": "20051231",
        "federal_state": "Brandenburg"
      }
    },
    {
      "type": "Feature",
      "geometry": {
        "type": "Point",
        "coordinates": [
          7.5765,
          50.6654
        ]
      },
      "properties": {
        "station_id": "00121",
        "station_name": "Neitersen",
        "elevation": 218.0,
        "start_date": "19310101",
        "end_date": "20250903",
        "federal_state": "Rheinland-Pfalz"
      }
    },
    {
      "type": "Feature",
      "geometry": {
        "type": "Point",
        "coordinates": [
          10.6195,
          53.1471
        ]
      },
      "properties": {
        "station_id": "00122",
        "station_name": "Altenmedingen-Eddelstorf",
        "elevation": 61.0,
        "start_date": "19410101",
        "end_date": "20061231",
        "federal_state": "Niedersachsen"
      }
    },
    {
      "type": "Feature",
      "geometry": {
        "type": "Point",
        "coordinates": [
          12.0833,
          49.7667
        ]
      },
      "properties": {
        "station_id": "00123",
        "station_name": "Altenparkstein",
        "elevation": 470.0,
        "start_date": "19780101",
        "end_date": "19860228",
        "federal_state": "Bayern"
      }
    },
    {
      "type": "Feature",
      "geometry": {
        "type": "Point",
        "coordinates": [
          11.577,
          51.2388
        ]
      },
      "properties": {
        "station_id": "00124",
        "station_name": "Bibra, Bad-Altenroda",
        "elevation": 265.0,
        "start_date": "19470101",
        "end_date": "20250903",
        "federal_state": "Sachsen-Anhalt"
      }
    },
    {
      "type": "Feature",
      "geometry": {
        "type": "Point",
        "coordinates": [
          8.6501,
          48.6171
        ]
      },
      "properties": {
        "station_id": "00127",
        "station_name": "Altensteig-Wart",
        "elevation": 594.0,
        "start_date": "19310101",
        "end_date": "20021231",
        "federal_state": "Baden-Württemberg"
      }
    },
    {
      "type": "Feature",
      "geometry": {
        "type": "Point",
        "coordinates": [
          12.3232,
          49.0844
        ]
      },
      "properties": {
        "station_id": "00128",
        "station_name": "Altenthann-Forstmühle",
        "elevation": 446.0,
        "start_date": "19510101",
        "end_date": "20250903",
        "federal_state": "Bayern"
      }
    },
    {
      "type": "Feature",
      "geometry": {
        "type": "Point",
        "coordinates": [
          13.242,
          53.6893
        ]
      },
      "properties": {
        "station_id": "00129",
        "station_name": "Altentreptow",
        "elevation": 30.0,
        "start_date": "18900501",
        "end_date": "20250903",
        "federal_state": "Mecklenburg-Vorpommern"
      }
    },
    {
      "type": "Feature",
      "geometry": {
        "type": "Point",
        "coordinates": [
          9.7692,
          49.7284
        ]
      },
      "properties": {
        "station_id": "00130",
        "station_name": "Altertheim-Oberaltertheim",
        "elevation": 301.0,
        "start_date": "19410101",
        "end_date": "20250903",
        "federal_state": "Bayern"
      }
    },
    {
      "type": "Feature",
      "geometry": {
        "type": "Point",
        "coordinates": [
          12.9326,
          51.0881
        ]
      },
      "properties": {
        "station_id": "00131",
        "station_name": "Geringswalde-Altgeringswalde",
        "elevation": 296.0,
        "start_date": "19521101",
        "end_date": "20250903",
        "federal_state": "Sachsen"
      }
    },
    {
      "type": "Feature",
      "geometry": {
        "type": "Point",
        "coordinates": [
          12.3891,
          49.7725
        ]
      },
      "properties": {
        "station_id": "00132",
        "station_name": "Altglashütte",
        "elevation": 750.0,
        "start_date": "19531211",
        "end_date": "19870930",
        "federal_state": "Bayern"
      }
    },
    {
      "type": "Feature",
      "geometry": {
        "type": "Point",
        "coordinates": [
          8.7493,
          48.7359
        ]
      },
      "properties": {
        "station_id": "00133",
        "station_name": "Althengstett-Ottenbronn",
        "elevation": 530.0,
        "start_date": "19310101",
        "end_date": "20031231",
        "federal_state": "Baden-Württemberg"
      }
    },
    {
      "type": "Feature",
      "geometry": {
        "type": "Point",
        "coordinates": [
          12.7667,
          49.3333
        ]
      },
      "properties": {
        "station_id": "00134",
        "station_name": "Althütte bei Waldmünchen",
        "elevation": 785.0,
        "start_date": "19791001",
        "end_date": "19851231",
        "federal_state": "Bayern"
      }
    },
    {
      "type": "Feature",
      "geometry": {
        "type": "Point",
        "coordinates": [
          12.35,
          50.9333
        ]
      },
      "properties": {
        "station_id": "00135",
        "station_name": "Altkirchen",
        "elevation": 232.0,
        "start_date": "19780101",
        "end_date": "19911231",
        "federal_state": "Thüringen"
      }
    },
    {
      "type": "Feature",
      "geometry": {
        "type": "Point",
        "coordinates": [
          13.1315,
          49.1762
        ]
      },
      "properties": {
        "station_id": "00137",
        "station_name": "Altlohberghütte",
        "elevation": 825.0,
        "start_date": "19780101",
        "end_date": "19890930",
        "federal_state": "Bayern"
      }
    },
    {
      "type": "Feature",
      "geometry": {
        "type": "Point",
        "coordinates": [
          11.7114,
          48.8821
        ]
      },
      "properties": {
        "station_id": "00138",
        "station_name": "Altmannstein-Laimerstadt",
        "elevation": 430.0,
        "start_date": "19510101",
        "end_date": "19900630",
        "federal_state": "Bayern"
      }
    },
    {
      "type": "Feature",
      "geometry": {
        "type": "Point",
        "coordinates": [
          11.5694,
          48.9437
        ]
      },
      "properties": {
        "station_id": "00139",
        "station_name": "Altmannstein-Pondorf",
        "elevation": 530.0,
        "start_date": "19510101",
        "end_date": "20050930",
        "federal_state": "Bayern"
      }
    },
    {
      "type": "Feature",
      "geometry": {
        "type": "Point",
        "coordinates": [
          11.4272,
          52.6861
        ]
      },
      "properties": {
        "station_id": "00140",
        "station_name": "Altmersleben",
        "elevation": 35.0,
        "start_date": "19710101",
        "end_date": "20021231",
        "federal_state": "Sachsen-Anhalt"
      }
    },
    {
      "type": "Feature",
      "geometry": {
        "type": "Point",
        "coordinates": [
          12.5731,
          50.9932
        ]
      },
      "properties": {
        "station_id": "00141",
        "station_name": "Altmörbitz/Wyhra",
        "elevation": 207.0,
        "start_date": "20230114",
        "end_date": "20250903",
        "federal_state": "Sachsen"
      }
    },
    {
      "type": "Feature",
      "geometry": {
        "type": "Point",
        "coordinates": [
          11.3117,
          48.406
        ]
      },
      "properties": {
        "station_id": "00142",
        "station_name": "Altomünster-Maisbrunn",
        "elevation": 511.0,
        "start_date": "19550101",
        "end_date": "20250903",
        "federal_state": "Bayern"
      }
    },
    {
      "type": "Feature",
      "geometry": {
        "type": "Point",
        "coordinates": [
          11.1984,
          48.4012
        ]
      },
      "properties": {
        "station_id": "00143",
        "station_name": "Altomünster-Wollomoos",
        "elevation": 505.0,
        "start_date": "19510101",
        "end_date": "20051231",
        "federal_state": "Bayern"
      }
    },
    {
      "type": "Feature",
      "geometry": {
        "type": "Point",
        "coordinates": [
          14.1664,
          52.7642
        ]
      },
      "properties": {
        "station_id": "00144",
        "station_name": "Altreetz",
        "elevation": 6.0,
        "start_date": "19690101",
        "end_date": "20031231",
        "federal_state": "Brandenburg"
      }
    },
    {
      "type": "Feature",
      "geometry": {
        "type": "Point",
        "coordinates": [
          10.2779,
          47.7965
        ]
      },
      "properties": {
        "station_id": "00145",
        "station_name": "Altusried-Krugzell",
        "elevation": 648.0,
        "start_date": "19410101",
        "end_date": "20250903",
        "federal_state": "Bayern"
      }
    },
    {
      "type": "Feature",
      "geometry": {
        "type": "Point",
        "coordinates": [
          10.0988,
          47.7922
        ]
      },
      "properties": {
        "station_id": "00146",
        "station_name": "Altusried-Muthmannshofen",
        "elevation": 730.0,
        "start_date": "20060107",
        "end_date": "20250903",
        "federal_state": "Bayern"
      }
    },
    {
      "type": "Feature",
      "geometry": {
        "type": "Point",
        "coordinates": [
          13.8351,
          53.7171
        ]
      },
      "properties": {
        "station_id": "00147",
        "station_name": "Altwigshagen",
        "elevation": 9.0,
        "start_date": "19690101",
        "end_date": "20011231",
        "federal_state": "Mecklenburg-Vorpommern"
      }
    },
    {
      "type": "Feature",
      "geometry": {
        "type": "Point",
        "coordinates": [
          9.9,
          53.8
        ]
      },
      "properties": {
        "station_id": "00148",
        "station_name": "Alveslohe",
        "elevation": 33.0,
        "start_date": "19510101",
        "end_date": "19831031",
        "federal_state": "Schleswig-Holstein"
      }
    },
    {
      "type": "Feature",
      "geometry": {
        "type": "Point",
        "coordinates": [
          9.0598,
          50.0888
        ]
      },
      "properties": {
        "station_id": "00149",
        "station_name": "Alzenau",
        "elevation": 111.0,
        "start_date": "19810701",
        "end_date": "20171231",
        "federal_state": "Bayern"
      }
    },
    {
      "type": "Feature",
      "geometry": {
        "type": "Point",
        "coordinates": [
          8.1164,
          49.7273
        ]
      },
      "properties": {
        "station_id": "00150",
        "station_name": "Alzey",
        "elevation": 215.0,
        "start_date": "19510101",
        "end_date": "20250903",
        "federal_state": "Rheinland-Pfalz"
      }
    },
    {
      "type": "Feature",
      "geometry": {
        "type": "Point",
        "coordinates": [
          11.8546,
          49.4691
        ]
      },
      "properties": {
        "station_id": "00151",
        "station_name": "Amberg-Unterammersricht",
        "elevation": 382.0,
        "start_date": "19550301",
        "end_date": "20250903",
        "federal_state": "Bayern"
      }
    },
    {
      "type": "Feature",
      "geometry": {
        "type": "Point",
        "coordinates": [
          10.2184,
          53.1268
        ]
      },
      "properties": {
        "station_id": "00152",
        "station_name": "Amelinghausen",
        "elevation": 57.0,
        "start_date": "19710101",
        "end_date": "20120111",
        "federal_state": "Niedersachsen"
      }
    },
    {
      "type": "Feature",
      "geometry": {
        "type": "Point",
        "coordinates": [
          12.3132,
          48.0027
        ]
      },
      "properties": {
        "station_id": "00153",
        "station_name": "Amerang-Kammer",
        "elevation": 530.0,
        "start_date": "19820301",
        "end_date": "20051231",
        "federal_state": "Bayern"
      }
    },
    {
      "type": "Feature",
      "geometry": {
        "type": "Point",
        "coordinates": [
          12.2925,
          48.0197
        ]
      },
      "properties": {
        "station_id": "00154",
        "station_name": "Amerang-Pfaffing",
        "elevation": 516.0,
        "start_date": "19940101",
        "end_date": "20250903",
        "federal_state": "Bayern"
      }
    },
    {
      "type": "Feature",
      "geometry": {
        "type": "Point",
        "coordinates": [
          10.4915,
          48.7257
        ]
      },
      "properties": {
        "station_id": "00155",
        "station_name": "Amerdingen",
        "elevation": 492.0,
        "start_date": "19410101",
        "end_date": "20170930",
        "federal_state": "Bayern"
      }
    },
    {
      "type": "Feature",
      "geometry": {
        "type": "Point",
        "coordinates": [
          11.5744,
          51.777
        ]
      },
      "properties": {
        "station_id": "00156",
        "station_name": "Amesdorf-Warmsdorf",
        "elevation": 96.0,
        "start_date": "19080101",
        "end_date": "20061231",
        "federal_state": "Sachsen-Anhalt"
      }
    },
    {
      "type": "Feature",
      "geometry": {
        "type": "Point",
        "coordinates": [
          8.9545,
          50.784
        ]
      },
      "properties": {
        "station_id": "00158",
        "station_name": "Amöneburg-Rüdigheim",
        "elevation": 210.0,
        "start_date": "19410101",
        "end_date": "20250903",
        "federal_state": "Hessen"
      }
    },
    {
      "type": "Feature",
      "geometry": {
        "type": "Point",
        "coordinates": [
          9.2295,
          49.6403
        ]
      },
      "properties": {
        "station_id": "00159",
        "station_name": "Amorbach",
        "elevation": 181.0,
        "start_date": "19710101",
        "end_date": "20030731",
        "federal_state": "Bayern"
      }
    },
    {
      "type": "Feature",
      "geometry": {
        "type": "Point",
        "coordinates": [
          11.1778,
          47.9636
        ]
      },
      "properties": {
        "station_id": "00160",
        "station_name": "Andechs-Erling",
        "elevation": 682.0,
        "start_date": "19710101",
        "end_date": "20250903",
        "federal_state": "Bayern"
      }
    },
    {
      "type": "Feature",
      "geometry": {
        "type": "Point",
        "coordinates": [
          7.4202,
          50.4237
        ]
      },
      "properties": {
        "station_id": "00161",
        "station_name": "Andernach",
        "elevation": 75.0,
        "start_date": "18970508",
        "end_date": "20250903",
        "federal_state": "Rheinland-Pfalz"
      }
    },
    {
      "type": "Feature",
      "geometry": {
        "type": "Point",
        "coordinates": [
          12.8984,
          47.8013
        ]
      },
      "properties": {
        "station_id": "00162",
        "station_name": "Anger-Oberhögl",
        "elevation": 690.0,
        "start_date": "19410101",
        "end_date": "20051231",
        "federal_state": "Bayern"
      }
    },
    {
      "type": "Feature",
      "geometry": {
        "type": "Point",
        "coordinates": [
          12.8193,
          47.803
        ]
      },
      "properties": {
        "station_id": "00163",
        "station_name": "Anger-Stoißberg",
        "elevation": 828.0,
        "start_date": "19510101",
        "end_date": "20250903",
        "federal_state": "Bayern"
      }
    },
    {
      "type": "Feature",
      "geometry": {
        "type": "Point",
        "coordinates": [
          13.9908,
          53.0316
        ]
      },
      "properties": {
        "station_id": "00164",
        "station_name": "Angermünde",
        "elevation": 54.0,
        "start_date": "18990417",
        "end_date": "20250903",
        "federal_state": "Brandenburg"
      }
    },
    {
      "type": "Feature",
      "geometry": {
        "type": "Point",
        "coordinates": [
          11.7346,
          52.3611
        ]
      },
      "properties": {
        "station_id": "00165",
        "station_name": "Angern",
        "elevation": 50.0,
        "start_date": "19690101",
        "end_date": "20061231",
        "federal_state": "Sachsen-Anhalt"
      }
    },
    {
      "type": "Feature",
      "geometry": {
        "type": "Point",
        "coordinates": [
          11.9,
          51.4667
        ]
      },
      "properties": {
        "station_id": "00166",
        "station_name": "Angersdorf",
        "elevation": 108.0,
        "start_date": "19690101",
        "end_date": "19910131",
        "federal_state": "Sachsen-Anhalt"
      }
    },
    {
      "type": "Feature",
      "geometry": {
        "type": "Point",
        "coordinates": [
          13.6854,
          53.8409
        ]
      },
      "properties": {
        "station_id": "00167",
        "station_name": "Anklam",
        "elevation": 11.0,
        "start_date": "18900501",
        "end_date": "20250903",
        "federal_state": "Mecklenburg-Vorpommern"
      }
    },
    {
      "type": "Feature",
      "geometry": {
        "type": "Point",
        "coordinates": [
          7.8763,
          52.5461
        ]
      },
      "properties": {
        "station_id": "00168",
        "station_name": "Ankum",
        "elevation": 62.0,
        "start_date": "19510101",
        "end_date": "19990531",
        "federal_state": "Niedersachsen"
      }
    },
    {
      "type": "Feature",
      "geometry": {
        "type": "Point",
        "coordinates": [
          13.0053,
          50.573
        ]
      },
      "properties": {
        "station_id": "00169",
        "station_name": "Annaberg-Buchholz",
        "elevation": 630.0,
        "start_date": "19470101",
        "end_date": "20021231",
        "federal_state": "Sachsen"
      }
    },
    {
      "type": "Feature",
      "geometry": {
        "type": "Point",
        "coordinates": [
          13.0546,
          51.7309
        ]
      },
      "properties": {
        "station_id": "00170",
        "station_name": "Annaburg",
        "elevation": 76.0,
        "start_date": "19010601",
        "end_date": "20250903",
        "federal_state": "Sachsen-Anhalt"
      }
    },
    {
      "type": "Feature",
      "geometry": {
        "type": "Point",
        "coordinates": [
          9.5056,
          52.2486
        ]
      },
      "properties": {
        "station_id": "00172",
        "station_name": "Annaturm",
        "elevation": 395.0,
        "start_date": "19510101",
        "end_date": "19911130",
        "federal_state": "Niedersachsen"
      }
    },
    {
      "type": "Feature",
      "geometry": {
        "type": "Point",
        "coordinates": [
          7.9799,
          49.2133
        ]
      },
      "properties": {
        "station_id": "00173",
        "station_name": "Annweiler",
        "elevation": 174.0,
        "start_date": "19510101",
        "end_date": "20250903",
        "federal_state": "Rheinland-Pfalz"
      }
    },
    {
      "type": "Feature",
      "geometry": {
        "type": "Point",
        "coordinates": [
          7.9766,
          49.1886
        ]
      },
      "properties": {
        "station_id": "00174",
        "station_name": "Annweiler-Bindersbach",
        "elevation": 250.0,
        "start_date": "19840301",
        "end_date": "19871231",
        "federal_state": "Rheinland-Pfalz"
      }
    },
    {
      "type": "Feature",
      "geometry": {
        "type": "Point",
        "coordinates": [
          10.5751,
          49.2964
        ]
      },
      "properties": {
        "station_id": "00175",
        "station_name": "Ansbach",
        "elevation": 413.0,
        "start_date": "19510101",
        "end_date": "19760430",
        "federal_state": "Bayern"
      }
    },
    {
      "type": "Feature",
      "geometry": {
        "type": "Point",
        "coordinates": [
          10.5826,
          49.2475
        ]
      },
      "properties": {
        "station_id": "00176",
        "station_name": "Ansbach-Claffheim",
        "elevation": 481.0,
        "start_date": "19760601",
        "end_date": "19951130",
        "federal_state": "Bayern"
      }
    },
    {
      "type": "Feature",
      "geometry": {
        "type": "Point",
        "coordinates": [
          10.5815,
          49.3158
        ]
      },
      "properties": {
        "station_id": "00177",
        "station_name": "Ansbach-Hennenbach",
        "elevation": 418.0,
        "start_date": "19470501",
        "end_date": "19571030",
        "federal_state": "Bayern"
      }
    },
    {
      "type": "Feature",
      "geometry": {
        "type": "Point",
        "coordinates": [
          10.5354,
          49.2993
        ]
      },
      "properties": {
        "station_id": "00178",
        "station_name": "Ansbach-Schalkhausen",
        "elevation": 418.0,
        "start_date": "19860401",
        "end_date": "20250903",
        "federal_state": "Bayern"
      }
    },
    {
      "type": "Feature",
      "geometry": {
        "type": "Point",
        "coordinates": [
          10.932,
          47.8963
        ]
      },
      "properties": {
        "station_id": "00179",
        "station_name": "Apfeldorf",
        "elevation": 664.0,
        "start_date": "19410101",
        "end_date": "20051130",
        "federal_state": "Bayern"
      }
    },
    {
      "type": "Feature",
      "geometry": {
        "type": "Point",
        "coordinates": [
          11.505,
          51.0306
        ]
      },
      "properties": {
        "station_id": "00180",
        "station_name": "Apolda",
        "elevation": 205.0,
        "start_date": "19510101",
        "end_date": "20001231",
        "federal_state": "Thüringen"
      }
    },
    {
      "type": "Feature",
      "geometry": {
        "type": "Point",
        "coordinates": [
          11.44,
          52.8682
        ]
      },
      "properties": {
        "station_id": "00182",
        "station_name": "Arendsee-Kläden",
        "elevation": 33.0,
        "start_date": "19510101",
        "end_date": "20241021",
        "federal_state": "Sachsen-Anhalt"
      }
    },
    {
      "type": "Feature",
      "geometry": {
        "type": "Point",
        "coordinates": [
          13.4344,
          54.6791
        ]
      },
      "properties": {
        "station_id": "00183",
        "station_name": "Arkona",
        "elevation": 42.0,
        "start_date": "19510101",
        "end_date": "20250903",
        "federal_state": "Mecklenburg-Vorpommern"
      }
    },
    {
      "type": "Feature",
      "geometry": {
        "type": "Point",
        "coordinates": [
          12.0077,
          52.6769
        ]
      },
      "properties": {
        "station_id": "00184",
        "station_name": "Arneburg",
        "elevation": 55.0,
        "start_date": "19690101",
        "end_date": "20021231",
        "federal_state": "Sachsen-Anhalt"
      }
    },
    {
      "type": "Feature",
      "geometry": {
        "type": "Point",
        "coordinates": [
          9.9294,
          54.6289
        ]
      },
      "properties": {
        "station_id": "00185",
        "station_name": "Arnis",
        "elevation": 3.0,
        "start_date": "19460101",
        "end_date": "19761231",
        "federal_state": "Schleswig-Holstein"
      }
    },
    {
      "type": "Feature",
      "geometry": {
        "type": "Point",
        "coordinates": [
          8.0713,
          51.3773
        ]
      },
      "properties": {
        "station_id": "00186",
        "station_name": "Arnsberg",
        "elevation": 218.0,
        "start_date": "18800101",
        "end_date": "19980930",
        "federal_state": "Nordrhein-Westfalen"
      }
    },
    {
      "type": "Feature",
      "geometry": {
        "type": "Point",
        "coordinates": [
          7.9126,
          51.4188
        ]
      },
      "properties": {
        "station_id": "00187",
        "station_name": "Arnsberg-Holzen",
        "elevation": 265.0,
        "start_date": "19410101",
        "end_date": "20250903",
        "federal_state": "Nordrhein-Westfalen"
      }
    },
    {
      "type": "Feature",
      "geometry": {
        "type": "Point",
        "coordinates": [
          10.9667,
          50.85
        ]
      },
      "properties": {
        "station_id": "00188",
        "station_name": "Arnstadt",
        "elevation": 267.0,
        "start_date": "19690101",
        "end_date": "19901231",
        "federal_state": "Thüringen"
      }
    },
    {
      "type": "Feature",
      "geometry": {
        "type": "Point",
        "coordinates": [
          9.9771,
          50.027
        ]
      },
      "properties": {
        "station_id": "00189",
        "station_name": "Arnstein-Altbessingen",
        "elevation": 265.0,
        "start_date": "19410101",
        "end_date": "20051231",
        "federal_state": "Bayern"
      }
    },
    {
      "type": "Feature",
      "geometry": {
        "type": "Point",
        "coordinates": [
          9.9332,
          49.9745
        ]
      },
      "properties": {
        "station_id": "00190",
        "station_name": "Arnstein-Marbach",
        "elevation": 202.0,
        "start_date": "19710101",
        "end_date": "20021231",
        "federal_state": "Bayern"
      }
    },
    {
      "type": "Feature",
      "geometry": {
        "type": "Point",
        "coordinates": [
          9.9114,
          49.9694
        ]
      },
      "properties": {
        "station_id": "00191",
        "station_name": "Arnstein-Müdesheim",
        "elevation": 217.0,
        "start_date": "19860401",
        "end_date": "20250903",
        "federal_state": "Bayern"
      }
    },
    {
      "type": "Feature",
      "geometry": {
        "type": "Point",
        "coordinates": [
          12.8126,
          48.5565
        ]
      },
      "properties": {
        "station_id": "00192",
        "station_name": "Arnstorf",
        "elevation": 385.0,
        "start_date": "19410101",
        "end_date": "20051231",
        "federal_state": "Bayern"
      }
    },
    {
      "type": "Feature",
      "geometry": {
        "type": "Point",
        "coordinates": [
          9.082,
          51.3845
        ]
      },
      "properties": {
        "station_id": "00193",
        "station_name": "Arolsen-Neu Berich",
        "elevation": 232.0,
        "start_date": "19680101",
        "end_date": "19971031",
        "federal_state": "Hessen"
      }
    },
    {
      "type": "Feature",
      "geometry": {
        "type": "Point",
        "coordinates": [
          9.0763,
          51.3431
        ]
      },
      "properties": {
        "station_id": "00194",
        "station_name": "Arolsen-Landau, Bad",
        "elevation": 265.0,
        "start_date": "19310101",
        "end_date": "20250903",
        "federal_state": "Hessen"
      }
    },
    {
      "type": "Feature",
      "geometry": {
        "type": "Point",
        "coordinates": [
          9.0236,
          51.4256
        ]
      },
      "properties": {
        "station_id": "00196",
        "station_name": "Arolsen-Schmillinghausen",
        "elevation": 248.0,
        "start_date": "19410101",
        "end_date": "19961231",
        "federal_state": "Hessen"
      }
    },
    {
      "type": "Feature",
      "geometry": {
        "type": "Point",
        "coordinates": [
          11.292,
          51.3744
        ]
      },
      "properties": {
        "station_id": "00198",
        "station_name": "Artern",
        "elevation": 164.0,
        "start_date": "18900801",
        "end_date": "20250903",
        "federal_state": "Thüringen"
      }
    },
    {
      "type": "Feature",
      "geometry": {
        "type": "Point",
        "coordinates": [
          10.4795,
          53.3752
        ]
      },
      "properties": {
        "station_id": "00199",
        "station_name": "Artlenburg",
        "elevation": 6.0,
        "start_date": "18900101",
        "end_date": "20061231",
        "federal_state": "Niedersachsen"
      }
    },
    {
      "type": "Feature",
      "geometry": {
        "type": "Point",
        "coordinates": [
          6.3161,
          50.085
        ]
      },
      "properties": {
        "station_id": "00200",
        "station_name": "Lauperath-Scheidchen",
        "elevation": 517.0,
        "start_date": "19510101",
        "end_date": "20250903",
        "federal_state": "Rheinland-Pfalz"
      }
    },
    {
      "type": "Feature",
      "geometry": {
        "type": "Point",
        "coordinates": [
          7.4459,
          50.6661
        ]
      },
      "properties": {
        "station_id": "00201",
        "station_name": "Asbach",
        "elevation": 255.0,
        "start_date": "19510101",
        "end_date": "20250903",
        "federal_state": "Rheinland-Pfalz"
      }
    },
    {
      "type": "Feature",
      "geometry": {
        "type": "Point",
        "coordinates": [
          9.1091,
          49.9771
        ]
      },
      "properties": {
        "station_id": "00202",
        "station_name": "Aschaffenburg",
        "elevation": 111.0,
        "start_date": "19410101",
        "end_date": "20250903",
        "federal_state": "Bayern"
      }
    },
    {
      "type": "Feature",
      "geometry": {
        "type": "Point",
        "coordinates": [
          12.3368,
          47.786
        ]
      },
      "properties": {
        "station_id": "00203",
        "station_name": "Aschau-Innerkoy",
        "elevation": 607.0,
        "start_date": "19310101",
        "end_date": "20250903",
        "federal_state": "Bayern"
      }
    },
    {
      "type": "Feature",
      "geometry": {
        "type": "Point",
        "coordinates": [
          12.2731,
          47.7002
        ]
      },
      "properties": {
        "station_id": "00204",
        "station_name": "Aschau-Sachrang",
        "elevation": 731.0,
        "start_date": "19310101",
        "end_date": "20171130",
        "federal_state": "Bayern"
      }
    },
    {
      "type": "Feature",
      "geometry": {
        "type": "Point",
        "coordinates": [
          12.2982,
          47.7275
        ]
      },
      "properties": {
        "station_id": "00205",
        "station_name": "Aschau-Stein",
        "elevation": 681.0,
        "start_date": "19310101",
        "end_date": "20250903",
        "federal_state": "Bayern"
      }
    },
    {
      "type": "Feature",
      "geometry": {
        "type": "Point",
        "coordinates": [
          7.3333,
          53.05
        ]
      },
      "properties": {
        "station_id": "00206",
        "station_name": "Aschendorf",
        "elevation": 3.0,
        "start_date": "19510101",
        "end_date": "19751231",
        "federal_state": "Niedersachsen"
      }
    },
    {
      "type": "Feature",
      "geometry": {
        "type": "Point",
        "coordinates": [
          11.4667,
          51.7498
        ]
      },
      "properties": {
        "station_id": "00207",
        "station_name": "Aschersleben",
        "elevation": 105.0,
        "start_date": "18970501",
        "end_date": "20030930",
        "federal_state": "Sachsen-Anhalt"
      }
    },
    {
      "type": "Feature",
      "geometry": {
        "type": "Point",
        "coordinates": [
          11.6679,
          51.4887
        ]
      },
      "properties": {
        "station_id": "00208",
        "station_name": "Aseleben",
        "elevation": 100.0,
        "start_date": "18941001",
        "end_date": "20011231",
        "federal_state": "Sachsen-Anhalt"
      }
    },
    {
      "type": "Feature",
      "geometry": {
        "type": "Point",
        "coordinates": [
          9.3933,
          48.9957
        ]
      },
      "properties": {
        "station_id": "00209",
        "station_name": "Aspach-Allmersbach am Weinberg",
        "elevation": 318.0,
        "start_date": "19810901",
        "end_date": "20031231",
        "federal_state": "Baden-Württemberg"
      }
    },
    {
      "type": "Feature",
      "geometry": {
        "type": "Point",
        "coordinates": [
          8.4685,
          50.58
        ]
      },
      "properties": {
        "station_id": "00211",
        "station_name": "Aßlar Klein-Altenstädten",
        "elevation": 200.0,
        "start_date": "19810901",
        "end_date": "20250903",
        "federal_state": "Hessen"
      }
    },
    {
      "type": "Feature",
      "geometry": {
        "type": "Point",
        "coordinates": [
          10.9897,
          51.9375
        ]
      },
      "properties": {
        "station_id": "00213",
        "station_name": "Sargstedt",
        "elevation": 170.0,
        "start_date": "18980601",
        "end_date": "20250903",
        "federal_state": "Sachsen-Anhalt"
      }
    },
    {
      "type": "Feature",
      "geometry": {
        "type": "Point",
        "coordinates": [
          7.9108,
          51.1212
        ]
      },
      "properties": {
        "station_id": "00214",
        "station_name": "Attendorn",
        "elevation": 307.0,
        "start_date": "18910801",
        "end_date": "20061231",
        "federal_state": "Nordrhein-Westfalen"
      }
    },
    {
      "type": "Feature",
      "geometry": {
        "type": "Point",
        "coordinates": [
          7.8352,
          51.0998
        ]
      },
      "properties": {
        "station_id": "00215",
        "station_name": "Attendorn (Listertalsperre)",
        "elevation": 340.0,
        "start_date": "19460701",
        "end_date": "20080331",
        "federal_state": "Nordrhein-Westfalen"
      }
    },
    {
      "type": "Feature",
      "geometry": {
        "type": "Point",
        "coordinates": [
          7.8807,
          51.1143
        ]
      },
      "properties": {
        "station_id": "00216",
        "station_name": "Attendorn-Neulisternohl",
        "elevation": 298.0,
        "start_date": "19710101",
        "end_date": "20250903",
        "federal_state": "Nordrhein-Westfalen"
      }
    },
    {
      "type": "Feature",
      "geometry": {
        "type": "Point",
        "coordinates": [
          11.3643,
          47.8774
        ]
      },
      "properties": {
        "station_id": "00217",
        "station_name": "Attenkam",
        "elevation": 670.0,
        "start_date": "19410101",
        "end_date": "20250903",
        "federal_state": "Bayern"
      }
    },
    {
      "type": "Feature",
      "geometry": {
        "type": "Point",
        "coordinates": [
          11.602,
          51.9166
        ]
      },
      "properties": {
        "station_id": "00218",
        "station_name": "Staßfurt-Atzendorf",
        "elevation": 83.0,
        "start_date": "19690101",
        "end_date": "20230101",
        "federal_state": "Sachsen-Anhalt"
      }
    },
    {
      "type": "Feature",
      "geometry": {
        "type": "Point",
        "coordinates": [
          11.5667,
          51.9167
        ]
      },
      "properties": {
        "station_id": "00219",
        "station_name": "Atzendorf (Marbeschacht)",
        "elevation": 77.0,
        "start_date": "19750101",
        "end_date": "19901231",
        "federal_state": "Sachsen-Anhalt"
      }
    },
    {
      "type": "Feature",
      "geometry": {
        "type": "Point",
        "coordinates": [
          8.2324,
          48.9501
        ]
      },
      "properties": {
        "station_id": "00220",
        "station_name": "Au am Rhein",
        "elevation": 109.0,
        "start_date": "19910301",
        "end_date": "20110430",
        "federal_state": "Baden-Württemberg"
      }
    },
    {
      "type": "Feature",
      "geometry": {
        "type": "Point",
        "coordinates": [
          11.7117,
          48.5515
        ]
      },
      "properties": {
        "station_id": "00221",
        "station_name": "Au i.d.Hallertau-Günzenhausen",
        "elevation": 483.0,
        "start_date": "19850801",
        "end_date": "19900531",
        "federal_state": "Bayern"
      }
    },
    {
      "type": "Feature",
      "geometry": {
        "type": "Point",
        "coordinates": [
          12.7139,
          50.5908
        ]
      },
      "properties": {
        "station_id": "00222",
        "station_name": "Aue",
        "elevation": 393.0,
        "start_date": "19450401",
        "end_date": "20250903",
        "federal_state": "Sachsen"
      }
    },
    {
      "type": "Feature",
      "geometry": {
        "type": "Point",
        "coordinates": [
          11.6235,
          49.7007
        ]
      },
      "properties": {
        "station_id": "00223",
        "station_name": "Auerbach/Oberpfalz",
        "elevation": 419.0,
        "start_date": "19310101",
        "end_date": "20250903",
        "federal_state": "Bayern"
      }
    },
    {
      "type": "Feature",
      "geometry": {
        "type": "Point",
        "coordinates": [
          10.7333,
          47.7333
        ]
      },
      "properties": {
        "station_id": "00224",
        "station_name": "Auerberg",
        "elevation": 1045.0,
        "start_date": "19310101",
        "end_date": "19810731",
        "federal_state": "Bayern"
      }
    },
    {
      "type": "Feature",
      "geometry": {
        "type": "Point",
        "coordinates": [
          11.5833,
          51.1
        ]
      },
      "properties": {
        "station_id": "00225",
        "station_name": "Auerstedt",
        "elevation": 150.0,
        "start_date": "19510101",
        "end_date": "20061231",
        "federal_state": "Thüringen"
      }
    },
    {
      "type": "Feature",
      "geometry": {
        "type": "Point",
        "coordinates": [
          11.8586,
          48.306
        ]
      },
      "properties": {
        "station_id": "00226",
        "station_name": "Aufkirchen",
        "elevation": 480.0,
        "start_date": "19410101",
        "end_date": "19970228",
        "federal_state": "Bayern"
      }
    },
    {
      "type": "Feature",
      "geometry": {
        "type": "Point",
        "coordinates": [
          11.2656,
          49.8823
        ]
      },
      "properties": {
        "station_id": "00227",
        "station_name": "Aufseß-Hochstahl",
        "elevation": 432.0,
        "start_date": "19410101",
        "end_date": "20250903",
        "federal_state": "Bayern"
      }
    },
    {
      "type": "Feature",
      "geometry": {
        "type": "Point",
        "coordinates": [
          10.9351,
          48.3474
        ]
      },
      "properties": {
        "station_id": "00228",
        "station_name": "Augsburg (Hochablaß)",
        "elevation": 486.0,
        "start_date": "19310101",
        "end_date": "19990131",
        "federal_state": "Bayern"
      }
    },
    {
      "type": "Feature",
      "geometry": {
        "type": "Point",
        "coordinates": [
          10.9,
          48.4
        ]
      },
      "properties": {
        "station_id": "00229",
        "station_name": "Augsburg (Kläranlage)",
        "elevation": 470.0,
        "start_date": "19510101",
        "end_date": "19701231",
        "federal_state": "Bayern"
      }
    },
    {
      "type": "Feature",
      "geometry": {
        "type": "Point",
        "coordinates": [
          10.9167,
          48.3667
        ]
      },
      "properties": {
        "station_id": "00230",
        "station_name": "Augsburg (Schlachthof)",
        "elevation": 479.0,
        "start_date": "19310101",
        "end_date": "19601230",
        "federal_state": "Bayern"
      }
    },
    {
      "type": "Feature",
      "geometry": {
        "type": "Point",
        "coordinates": [
          10.8948,
          48.3723
        ]
      },
      "properties": {
        "station_id": "00231",
        "station_name": "Augsburg (Sankt Stephan)",
        "elevation": 490.0,
        "start_date": "18790101",
        "end_date": "20051231",
        "federal_state": "Bayern"
      }
    },
    {
      "type": "Feature",
      "geometry": {
        "type": "Point",
        "coordinates": [
          10.9417,
          48.4253
        ]
      },
      "properties": {
        "station_id": "00232",
        "station_name": "Augsburg",
        "elevation": 462.0,
        "start_date": "19470101",
        "end_date": "20250903",
        "federal_state": "Bayern"
      }
    },
    {
      "type": "Feature",
      "geometry": {
        "type": "Point",
        "coordinates": [
          11.5689,
          51.6001
        ]
      },
      "properties": {
        "station_id": "00234",
        "station_name": "Augsdorf",
        "elevation": 190.0,
        "start_date": "19690101",
        "end_date": "20021231",
        "federal_state": "Sachsen-Anhalt"
      }
    },
    {
      "type": "Feature",
      "geometry": {
        "type": "Point",
        "coordinates": [
          8.7323,
          51.8905
        ]
      },
      "properties": {
        "station_id": "00235",
        "station_name": "Augustdorf",
        "elevation": 163.0,
        "start_date": "19510101",
        "end_date": "19960930",
        "federal_state": "Nordrhein-Westfalen"
      }
    },
    {
      "type": "Feature",
      "geometry": {
        "type": "Point",
        "coordinates": [
          8.4932,
          49.0048
        ]
      },
      "properties": {
        "station_id": "00236",
        "station_name": "Augustenberg",
        "elevation": 153.0,
        "start_date": "19510101",
        "end_date": "19851231",
        "federal_state": "Baden-Württemberg"
      }
    },
    {
      "type": "Feature",
      "geometry": {
        "type": "Point",
        "coordinates": [
          13.1033,
          50.8124
        ]
      },
      "properties": {
        "station_id": "00237",
        "station_name": "Augustusburg",
        "elevation": 451.0,
        "start_date": "19450401",
        "end_date": "20061231",
        "federal_state": "Sachsen"
      }
    },
    {
      "type": "Feature",
      "geometry": {
        "type": "Point",
        "coordinates": [
          9.5743,
          50.1805
        ]
      },
      "properties": {
        "station_id": "00240",
        "station_name": "Aura im Sinngrund",
        "elevation": 293.0,
        "start_date": "19930701",
        "end_date": "20250903",
        "federal_state": "Bayern"
      }
    },
    {
      "type": "Feature",
      "geometry": {
        "type": "Point",
        "coordinates": [
          10.3635,
          49.2331
        ]
      },
      "properties": {
        "station_id": "00242",
        "station_name": "Aurach-Weinberg",
        "elevation": 510.0,
        "start_date": "19410101",
        "end_date": "20021231",
        "federal_state": "Bayern"
      }
    },
    {
      "type": "Feature",
      "geometry": {
        "type": "Point",
        "coordinates": [
          7.467,
          53.4621
        ]
      },
      "properties": {
        "station_id": "00243",
        "station_name": "Aurich",
        "elevation": 4.0,
        "start_date": "19410101",
        "end_date": "20061231",
        "federal_state": "Niedersachsen"
      }
    },
    {
      "type": "Feature",
      "geometry": {
        "type": "Point",
        "coordinates": [
          7.5159,
          53.5392
        ]
      },
      "properties": {
        "station_id": "00244",
        "station_name": "Aurich-Dietrichsfeld",
        "elevation": 10.0,
        "start_date": "19610101",
        "end_date": "20061231",
        "federal_state": "Niedersachsen"
      }
    },
    {
      "type": "Feature",
      "geometry": {
        "type": "Point",
        "coordinates": [
          7.5756,
          53.4551
        ]
      },
      "properties": {
        "station_id": "00245",
        "station_name": "Aurich-Wiesens",
        "elevation": 8.0,
        "start_date": "19710101",
        "end_date": "20250903",
        "federal_state": "Niedersachsen"
      }
    },
    {
      "type": "Feature",
      "geometry": {
        "type": "Point",
        "coordinates": [
          12.8909,
          51.7015
        ]
      },
      "properties": {
        "station_id": "00246",
        "station_name": "Axien",
        "elevation": 73.0,
        "start_date": "19380306",
        "end_date": "20080812",
        "federal_state": "Sachsen-Anhalt"
      }
    },
    {
      "type": "Feature",
      "geometry": {
        "type": "Point",
        "coordinates": [
          11.8103,
          47.9422
        ]
      },
      "properties": {
        "station_id": "00247",
        "station_name": "Aying-Kleinhelfendorf",
        "elevation": 641.0,
        "start_date": "19510101",
        "end_date": "20001231",
        "federal_state": "Bayern"
      }
    },
    {
      "type": "Feature",
      "geometry": {
        "type": "Point",
        "coordinates": [
          11.8007,
          51.7634
        ]
      },
      "properties": {
        "station_id": "00248",
        "station_name": "Baalberge",
        "elevation": 67.0,
        "start_date": "19710101",
        "end_date": "20061231",
        "federal_state": "Sachsen-Anhalt"
      }
    },
    {
      "type": "Feature",
      "geometry": {
        "type": "Point",
        "coordinates": [
          8.9862,
          49.9708
        ]
      },
      "properties": {
        "station_id": "00249",
        "station_name": "Babenhausen-Harreshausen",
        "elevation": 122.0,
        "start_date": "19410101",
        "end_date": "20070131",
        "federal_state": "Hessen"
      }
    },
    {
      "type": "Feature",
      "geometry": {
        "type": "Point",
        "coordinates": [
          8.8898,
          49.9506
        ]
      },
      "properties": {
        "station_id": "00250",
        "station_name": "Babenhausen-Hergershausen",
        "elevation": 131.0,
        "start_date": "19410101",
        "end_date": "19960630",
        "federal_state": "Hessen"
      }
    },
    {
      "type": "Feature",
      "geometry": {
        "type": "Point",
        "coordinates": [
          9.4333,
          47.9833
        ]
      },
      "properties": {
        "station_id": "00251",
        "station_name": "Bachhaupten",
        "elevation": 640.0,
        "start_date": "19510101",
        "end_date": "19701231",
        "federal_state": "Baden-Württemberg"
      }
    },
    {
      "type": "Feature",
      "geometry": {
        "type": "Point",
        "coordinates": [
          9.4336,
          48.9546
        ]
      },
      "properties": {
        "station_id": "00252",
        "station_name": "Backnang",
        "elevation": 291.0,
        "start_date": "19510101",
        "end_date": "20110630",
        "federal_state": "Baden-Württemberg"
      }
    },
    {
      "type": "Feature",
      "geometry": {
        "type": "Point",
        "coordinates": [
          7.9788,
          52.6346
        ]
      },
      "properties": {
        "station_id": "00255",
        "station_name": "Badbergen",
        "elevation": 30.0,
        "start_date": "18910701",
        "end_date": "20061231",
        "federal_state": "Niedersachsen"
      }
    },
    {
      "type": "Feature",
      "geometry": {
        "type": "Point",
        "coordinates": [
          10.1938,
          52.1039
        ]
      },
      "properties": {
        "station_id": "00256",
        "station_name": "Baddeckenstedt-Wartjensstedt",
        "elevation": 103.0,
        "start_date": "19510101",
        "end_date": "20040331",
        "federal_state": "Niedersachsen"
      }
    },
    {
      "type": "Feature",
      "geometry": {
        "type": "Point",
        "coordinates": [
          8.2457,
          48.727
        ]
      },
      "properties": {
        "station_id": "00257",
        "station_name": "Baden-Baden-Geroldsau",
        "elevation": 240.0,
        "start_date": "19490101",
        "end_date": "20250903",
        "federal_state": "Baden-Württemberg"
      }
    },
    {
      "type": "Feature",
      "geometry": {
        "type": "Point",
        "coordinates": [
          7.6387,
          47.8064
        ]
      },
      "properties": {
        "station_id": "00259",
        "station_name": "Müllheim",
        "elevation": 275.0,
        "start_date": "19470101",
        "end_date": "20250903",
        "federal_state": "Baden-Württemberg"
      }
    },
    {
      "type": "Feature",
      "geometry": {
        "type": "Point",
        "coordinates": [
          10.8934,
          51.9861
        ]
      },
      "properties": {
        "station_id": "00260",
        "station_name": "Badersleben",
        "elevation": 153.0,
        "start_date": "19470930",
        "end_date": "20141031",
        "federal_state": "Sachsen-Anhalt"
      }
    },
    {
      "type": "Feature",
      "geometry": {
        "type": "Point",
        "coordinates": [
          12.4288,
          49.7983
        ]
      },
      "properties": {
        "station_id": "00262",
        "station_name": "Bärnau-Naab",
        "elevation": 607.0,
        "start_date": "19310101",
        "end_date": "20250903",
        "federal_state": "Bayern"
      }
    },
    {
      "type": "Feature",
      "geometry": {
        "type": "Point",
        "coordinates": [
          14.1285,
          51.5793
        ]
      },
      "properties": {
        "station_id": "00264",
        "station_name": "Bahnsdorf",
        "elevation": 114.0,
        "start_date": "19730101",
        "end_date": "20051231",
        "federal_state": "Brandenburg"
      }
    },
    {
      "type": "Feature",
      "geometry": {
        "type": "Point",
        "coordinates": [
          11.5639,
          51.9978
        ]
      },
      "properties": {
        "station_id": "00266",
        "station_name": "Bahrendorf",
        "elevation": 87.0,
        "start_date": "19690101",
        "end_date": "20001231",
        "federal_state": "Sachsen-Anhalt"
      }
    },
    {
      "type": "Feature",
      "geometry": {
        "type": "Point",
        "coordinates": [
          12.206,
          48.4158
        ]
      },
      "properties": {
        "station_id": "00267",
        "station_name": "Baierbach",
        "elevation": 460.0,
        "start_date": "19880101",
        "end_date": "20051231",
        "federal_state": "Bayern"
      }
    },
    {
      "type": "Feature",
      "geometry": {
        "type": "Point",
        "coordinates": [
          8.2727,
          48.5293
        ]
      },
      "properties": {
        "station_id": "00268",
        "station_name": "Baiersbronn-Obertal",
        "elevation": 622.0,
        "start_date": "19540101",
        "end_date": "19961231",
        "federal_state": "Baden-Württemberg"
      }
    },
    {
      "type": "Feature",
      "geometry": {
        "type": "Point",
        "coordinates": [
          8.3176,
          48.5116
        ]
      },
      "properties": {
        "station_id": "00269",
        "station_name": "Baiersbronn-Mitteltal",
        "elevation": 599.0,
        "start_date": "19860901",
        "end_date": "20250903",
        "federal_state": "Baden-Württemberg"
      }
    },
    {
      "type": "Feature",
      "geometry": {
        "type": "Point",
        "coordinates": [
          8.4058,
          48.5699
        ]
      },
      "properties": {
        "station_id": "00270",
        "station_name": "Baiersbronn-Schönegründ",
        "elevation": 560.0,
        "start_date": "19780101",
        "end_date": "20230717",
        "federal_state": "Baden-Württemberg"
      }
    },
    {
      "type": "Feature",
      "geometry": {
        "type": "Point",
        "coordinates": [
          8.3185,
          48.5879
        ]
      },
      "properties": {
        "station_id": "00271",
        "station_name": "Baiersbronn-Zwickgabel",
        "elevation": 548.0,
        "start_date": "19841101",
        "end_date": "19971231",
        "federal_state": "Baden-Württemberg"
      }
    },
    {
      "type": "Feature",
      "geometry": {
        "type": "Point",
        "coordinates": [
          11.0609,
          49.6583
        ]
      },
      "properties": {
        "station_id": "00272",
        "station_name": "Baiersdorf-Hagenau",
        "elevation": 285.0,
        "start_date": "19510101",
        "end_date": "20051231",
        "federal_state": "Bayern"
      }
    },
    {
      "type": "Feature",
      "geometry": {
        "type": "Point",
        "coordinates": [
          9.6606,
          47.8413
        ]
      },
      "properties": {
        "station_id": "00273",
        "station_name": "Baindt",
        "elevation": 467.0,
        "start_date": "19861201",
        "end_date": "19900430",
        "federal_state": "Baden-Württemberg"
      }
    },
    {
      "type": "Feature",
      "geometry": {
        "type": "Point",
        "coordinates": [
          9.55,
          52.2167
        ]
      },
      "properties": {
        "station_id": "00274",
        "station_name": "Bakede",
        "elevation": 160.0,
        "start_date": "19410101",
        "end_date": "19601230",
        "federal_state": "Niedersachsen"
      }
    },
    {
      "type": "Feature",
      "geometry": {
        "type": "Point",
        "coordinates": [
          10.1043,
          47.465
        ]
      },
      "properties": {
        "station_id": "00275",
        "station_name": "Balderschwang",
        "elevation": 1039.0,
        "start_date": "19510101",
        "end_date": "20250903",
        "federal_state": "Bayern"
      }
    },
    {
      "type": "Feature",
      "geometry": {
        "type": "Point",
        "coordinates": [
          11.7302,
          51.2073
        ]
      },
      "properties": {
        "station_id": "00276",
        "station_name": "Balgstädt",
        "elevation": 110.0,
        "start_date": "19690101",
        "end_date": "20001231",
        "federal_state": "Sachsen-Anhalt"
      }
    },